{
  "metadata_governamental": {
    "cidade": "Tiradentes, MG",
    "data_extracao": "2025-07-29T06:04:51.103623",
    "total_estabelecimentos": 190,
    "categorias_processadas": 19,
    "status_auditoria": "COMPLETA"
  },
  "estabelecimentos": [
    {
      "position": 1,
      "title": "Entre Minas Loja Colaborativa",
      "place_id": "ChIJ18cMJ5mPpgARyMgpuU0HbJs",
      "rating": 5,
      "reviews": 231,
      "type": "Artesanato",
      "address": "R. Direita, 7 - Tiradentes, MG, 36325-000, Brasil",
      "phone": "",
      "website": "",
      "hours": "Fechado ⋅ Abre às 09:00",
      "cidade_oficial": "Tiradentes, MG",
      "categoria_governo": "lojas_presentes",
      "data_extracao_oficial": "2025-07-29T06:04:09.729074",
      "auditoria_governo": "COMPLETA",
      "latitude": -21.109225,
      "longitude": -44.1770413
    },
    {
      "position": 2,
      "title": "Santoficio Decoração Criativa",
      "place_id": "ChIJGyxCt__HoQAR7XmshrImcfY",
      "rating": 5,
      "reviews": 265,
      "type": "Decorador de interiores",
      "address": "R. Min. Gabriel Passos, 260 - centro, Tiradentes - MG, 36325-000, Brasil",
      "phone": "+55 32 99194-5201",
      "website": "http://www.santoficio.art.br/",
      "hours": "Fechado ⋅ Abre às 10:00",
      "cidade_oficial": "Tiradentes, MG",
      "categoria_governo": "lojas_presentes",
      "data_extracao_oficial": "2025-07-29T06:04:09.729074",
      "auditoria_governo": "COMPLETA",
      "latitude": -21.1085834,
      "longitude": -44.1763857
    },
    {
      "position": 3,
      "title": "Marcas Mineiras Loja e Café",
      "place_id": "ChIJGdAawqy4oQAR5MBYc-4jk7s",
      "rating": 4.8,
      "reviews": 986,
      "type": "Café",
      "address": "R. Sra. das Mercês, 49 - Centro, Tiradentes - MG, 36325-000, Brasil",
      "phone": "+55 32 3355-1682",
      "website": "http://www.marcasmineiras.com.br/",
      "hours": "Fechado ⋅ Abre às 10:00",
      "cidade_oficial": "Tiradentes, MG",
      "categoria_governo": "lojas_presentes",
      "data_extracao_oficial": "2025-07-29T06:04:09.729074",
      "auditoria_governo": "COMPLETA",
      "latitude": -21.109391,
      "longitude": -44.173316299999996
    },
    {
      "position": 4,
      "title": "Solino Artesanato",
      "place_id": "ChIJs88aCRG_oQARPPojpFXKzjI",
      "rating": 4.5,
      "reviews": 187,
      "type": "Loja de artigos domésticos",
      "address": "Unnamed Road, 36325-000, Tiradentes - MG, Brasil",
      "phone": "",
      "website": "",
      "hours": "Fechado ⋅ Abre qua. às 09:00",
      "cidade_oficial": "Tiradentes, MG",
      "categoria_governo": "lojas_presentes",
      "data_extracao_oficial": "2025-07-29T06:04:09.729074",
      "auditoria_governo": "COMPLETA",
      "latitude": -21.0994304,
      "longitude": -44.146104
    },
    {
      "position": 5,
      "title": "MeLeva Tiradentes",
      "place_id": "ChIJO7QNtuy5oQARfVIIdS-w2fM",
      "rating": 4.3,
      "reviews": 15,
      "type": "Loja de souvenires",
      "address": "R. Resende Costa, 67A - Centro, Tiradentes - MG, 36325-000, Brasil",
      "phone": "+55 31 99200-2956",
      "website": "",
      "hours": "Fechado ⋅ Abre às 09:00",
      "cidade_oficial": "Tiradentes, MG",
      "categoria_governo": "lojas_presentes",
      "data_extracao_oficial": "2025-07-29T06:04:09.729074",
      "auditoria_governo": "COMPLETA",
      "latitude": -21.1105566,
      "longitude": -44.174493399999996
    },
    {
      "position": 6,
      "title": "Criativa Papelaria",
      "place_id": "ChIJmTmeq1O_oQAR78WhN_wPZus",
      "rating": 4.8,
      "reviews": 88,
      "type": "Papelaria",
      "address": "R. Alberto Paoluci, nº67 - Centro, Tiradentes - MG, 36325-000, Brasil",
      "phone": "+55 32 98868-6975",
      "website": "",
      "hours": "Fechado ⋅ Abre às 09:00",
      "cidade_oficial": "Tiradentes, MG",
      "categoria_governo": "lojas_presentes",
      "data_extracao_oficial": "2025-07-29T06:04:09.729074",
      "auditoria_governo": "COMPLETA",
      "latitude": -21.109317,
      "longitude": -44.1704338
    },
    {
      "position": 7,
      "title": "Detalhe Mineiro",
      "place_id": "ChIJH7DP7Ku5oQAR_TJNmvl0gEQ",
      "rating": 4.4,
      "reviews": 8,
      "type": "Loja de souvenires",
      "address": "R. Resende Costa, 76 - Centro, Tiradentes - MG, 36325-000, Brasil",
      "phone": "+55 32 99821-2271",
      "website": "",
      "hours": "Fechado ⋅ Abre às 09:30",
      "cidade_oficial": "Tiradentes, MG",
      "categoria_governo": "lojas_presentes",
      "data_extracao_oficial": "2025-07-29T06:04:09.729074",
      "auditoria_governo": "COMPLETA",
      "latitude": -21.1107677,
      "longitude": -44.174323799999996
    },
    {
      "position": 8,
      "title": "Romer Resende",
      "place_id": "ChIJHU7zza24oQARnhTWjGqwQ0s",
      "rating": 4.9,
      "reviews": 18,
      "type": "Loja",
      "address": "R. Santíssima Trindade, 332 - Centro, Tiradentes - MG, 36325-000, Brasil",
      "phone": "+55 32 99906-3332",
      "website": "",
      "hours": "Aberto 24 horas",
      "cidade_oficial": "Tiradentes, MG",
      "categoria_governo": "lojas_presentes",
      "data_extracao_oficial": "2025-07-29T06:04:09.729074",
      "auditoria_governo": "COMPLETA",
      "latitude": -21.112587299999998,
      "longitude": -44.1830559
    },
    {
      "position": 9,
      "title": "Casa das Latas Tiradentes - Loja modelo",
      "place_id": "ChIJzY3n_lW5oQARemDITn3d9jQ",
      "rating": 3.9,
      "reviews": 87,
      "type": "Loja de presentes",
      "address": "Largo das Forras, 4 - Centro histórico, Tiradentes - MG, 36325-000, Brasil",
      "phone": "+55 32 99831-6509",
      "website": "http://www.casadaslatasoficial.com/",
      "hours": "Fechado ⋅ Abre às 09:00",
      "cidade_oficial": "Tiradentes, MG",
      "categoria_governo": "lojas_presentes",
      "data_extracao_oficial": "2025-07-29T06:04:09.729074",
      "auditoria_governo": "COMPLETA",
      "latitude": -21.110634899999997,
      "longitude": -44.1741088
    },
    {
      "position": 10,
      "title": "Faemam Estanhos - Loja Tiradentes",
      "place_id": "ChIJl-kQhay4oQARYAPTX7sDJes",
      "rating": 4.9,
      "reviews": 14,
      "type": "Galeria de Arte",
      "address": "R. Direita, 64 - Tiradentes, MG, 36325-000, Brasil",
      "phone": "+55 32 3371-8292",
      "website": "http://faemam.com.br/",
      "hours": "",
      "cidade_oficial": "Tiradentes, MG",
      "categoria_governo": "lojas_presentes",
      "data_extracao_oficial": "2025-07-29T06:04:09.729074",
      "auditoria_governo": "COMPLETA",
      "latitude": -21.1097856,
      "longitude": -44.1760885
    },
    {
      "position": 11,
      "title": "Casa das Latas - Tiradentes",
      "place_id": "ChIJJUMQmJ-5oQARwn4IWX9s4LA",
      "rating": 3.8,
      "reviews": 107,
      "type": "Loja de presentes",
      "address": "R. Min. Gabriel Passos, 225 - Centro, Tiradentes - MG, 36325-000, Brasil",
      "phone": "+55 32 99848-9517",
      "website": "http://www.casadaslatasoficial.com/",
      "hours": "Fechado ⋅ Abre às 09:00",
      "cidade_oficial": "Tiradentes, MG",
      "categoria_governo": "lojas_presentes",
      "data_extracao_oficial": "2025-07-29T06:04:09.729074",
      "auditoria_governo": "COMPLETA",
      "latitude": -21.1090396,
      "longitude": -44.1760075
    },
    {
      "position": 12,
      "title": "Baobá Artesanato De Bom Gosto",
      "place_id": "ChIJofB7p4m5oQARyq9L7oQDKAk",
      "rating": 5,
      "reviews": 2,
      "type": "Loja de presentes",
      "address": "R. Min. Gabriel Passos, 186 - Tiradentes, MG, 36325-000, Brasil",
      "phone": "+55 31 99983-0381",
      "website": "",
      "hours": "Fechado ⋅ Abre qua. às 09:00",
      "cidade_oficial": "Tiradentes, MG",
      "categoria_governo": "lojas_presentes",
      "data_extracao_oficial": "2025-07-29T06:04:09.729074",
      "auditoria_governo": "COMPLETA",
      "latitude": -21.1091882,
      "longitude": -44.1756089
    },
    {
      "position": 13,
      "title": "Maria Fumaça Brinquedos Educativos",
      "place_id": "ChIJ53wKd6y4oQARcxoU3kSFgVc",
      "rating": 4.6,
      "reviews": 51,
      "type": "Loja de Brinquedos",
      "address": "R. Direita, 266 A - Centro, Tiradentes - MG, 36325-000, Brasil",
      "phone": "+55 32 3355-1622",
      "website": "",
      "hours": "Fechado ⋅ Abre às 10:00",
      "cidade_oficial": "Tiradentes, MG",
      "categoria_governo": "lojas_presentes",
      "data_extracao_oficial": "2025-07-29T06:04:09.729074",
      "auditoria_governo": "COMPLETA",
      "latitude": -21.110574,
      "longitude": -44.175582
    },
    {
      "position": 14,
      "title": "Integrare Atelier e Loja",
      "place_id": "ChIJj-6LNxa_oQARRcJ4_jyUbSo",
      "rating": 5,
      "reviews": 17,
      "type": "Loja",
      "address": "R. Alvarenga Peixoto, 1097 - A, Tiradentes - MG, 36325-000, Brasil",
      "phone": "+55 31 99579-2881",
      "website": "https://www.instagram.com/integrareateliereloja?igsh=MXl6d2ZmZTZ4aDBr",
      "hours": "Fechado ⋅ Abre às 09:00",
      "cidade_oficial": "Tiradentes, MG",
      "categoria_governo": "lojas_presentes",
      "data_extracao_oficial": "2025-07-29T06:04:09.729074",
      "auditoria_governo": "COMPLETA",
      "latitude": -21.1052516,
      "longitude": -44.1551718
    },
    {
      "position": 15,
      "title": "Juliu's Variedades",
      "place_id": "ChIJpUycnFO_oQAROJTpcOi-Eoo",
      "rating": 4.7,
      "reviews": 14,
      "type": "Loja de variedades",
      "address": "R. dos Inconfidentes, 510 - Centro, Tiradentes - MG, 36325-000, Brasil",
      "phone": "+55 32 3355-1851",
      "website": "https://www.facebook.com/julius.varie",
      "hours": "Fechado ⋅ Abre às 09:00",
      "cidade_oficial": "Tiradentes, MG",
      "categoria_governo": "lojas_presentes",
      "data_extracao_oficial": "2025-07-29T06:04:09.729074",
      "auditoria_governo": "COMPLETA",
      "latitude": -21.1115726,
      "longitude": -44.1693664
    },
    {
      "position": 16,
      "title": "Arte & Tal",
      "place_id": "ChIJh9oFl6y4oQAR5EfPmXaUs3g",
      "rating": 4.4,
      "reviews": 16,
      "type": "Loja de artigos domésticos",
      "address": "R. Resende Costa, 8 - Centro, Tiradentes - MG, 36325-000, Brasil",
      "phone": "+55 32 3355-1451",
      "website": "",
      "hours": "Fechado ⋅ Abre às 09:00",
      "cidade_oficial": "Tiradentes, MG",
      "categoria_governo": "lojas_presentes",
      "data_extracao_oficial": "2025-07-29T06:04:09.729074",
      "auditoria_governo": "COMPLETA",
      "latitude": -21.1107598,
      "longitude": -44.1749654
    },
    {
      "position": 17,
      "title": "Loja Ave Maria",
      "place_id": "ChIJoeetl6y4oQARRSoWBRVv64s",
      "rating": 4.6,
      "reviews": 46,
      "type": "Loja de vestidos",
      "address": "R. Min. Gabriel Passos, 175 - Centro, Tiradentes - MG, 36325-000, Brasil",
      "phone": "+55 32 3355-1598",
      "website": "http://www.avemaria.store/",
      "hours": "Fechado ⋅ Abre às 09:00",
      "cidade_oficial": "Tiradentes, MG",
      "categoria_governo": "lojas_presentes",
      "data_extracao_oficial": "2025-07-29T06:04:09.729074",
      "auditoria_governo": "COMPLETA",
      "latitude": -21.109249,
      "longitude": -44.175748999999996
    },
    {
      "position": 18,
      "title": "Folk Art",
      "place_id": "ChIJi3qsN_e5oQARJ9sest7Pr5Q",
      "rating": 4.6,
      "reviews": 5,
      "type": "Loja de artigos domésticos",
      "address": "R. Direita, 10 b - Tiradentes, MG, 36325-000, Brasil",
      "phone": "",
      "website": "",
      "hours": "Fechado ⋅ Abre às 09:00",
      "cidade_oficial": "Tiradentes, MG",
      "categoria_governo": "lojas_presentes",
      "data_extracao_oficial": "2025-07-29T06:04:09.729074",
      "auditoria_governo": "COMPLETA",
      "latitude": -21.1099206,
      "longitude": -44.177973699999995
    },
    {
      "position": 19,
      "title": "Chico Rei Tiradentes",
      "place_id": "ChIJyZOgCzK5oQARo3uid2a0XM4",
      "rating": 4.9,
      "reviews": 135,
      "type": "Loja de camisetas",
      "address": "R. Direita, 232 - Centro, Tiradentes - MG, 36325-000, Brasil",
      "phone": "",
      "website": "http://chicorei.com/",
      "hours": "Fechado ⋅ Abre às 10:00",
      "cidade_oficial": "Tiradentes, MG",
      "categoria_governo": "lojas_presentes",
      "data_extracao_oficial": "2025-07-29T06:04:09.729074",
      "auditoria_governo": "COMPLETA",
      "latitude": -21.110405099999998,
      "longitude": -44.17561
    },
    {
      "position": 20,
      "title": "Empório Lembranças de Minas Tiradentes",
      "place_id": "ChIJz6XOq3-5oQARZh9uernaN64",
      "rating": 5,
      "reviews": 2,
      "type": "Artesanato",
      "address": "R. Min. Gabriel Passos, 81 - Centro, Tiradentes - MG, 36325-000, Brasil",
      "phone": "+55 32 98809-2377",
      "website": "",
      "hours": "Fechado ⋅ Abre qui. às 10:00",
      "cidade_oficial": "Tiradentes, MG",
      "categoria_governo": "lojas_presentes",
      "data_extracao_oficial": "2025-07-29T06:04:09.729074",
      "auditoria_governo": "COMPLETA",
      "latitude": -21.109913199999998,
      "longitude": -44.175042399999995
    },
    {
      "position": 1,
      "title": "Galeria N.S. do Rosário (Ciart Artesanato)",
      "place_id": "ChIJ1fmAkKy4oQARXR4f45quH1Y",
      "rating": 4.8,
      "reviews": 46,
      "type": "Artesanato",
      "address": "R. Resende Costa, 28 - Centro, Tiradentes - MG, 36325-000, Brasil",
      "phone": "+55 32 3355-1691",
      "website": "",
      "hours": "Fechado ⋅ Abre às 10:00",
      "cidade_oficial": "Tiradentes, MG",
      "categoria_governo": "lojas_artesanato",
      "data_extracao_oficial": "2025-07-29T06:04:12.319828",
      "auditoria_governo": "COMPLETA",
      "latitude": -21.1107281,
      "longitude": -44.174788299999996
    },
    {
      "position": 4,
      "title": "LJE-tiradentes artesanato em ferro madeira",
      "place_id": "ChIJJexV_wjBoQARWQY4UWKC52E",
      "rating": 5,
      "reviews": 2,
      "type": "Artesanato",
      "address": "Tv. Herculano José dos Santos, 52 - alto da torre, Tiradentes - MG, 36325-000, Brasil",
      "phone": "+55 32 99995-4636",
      "website": "",
      "hours": "Aberto 24 horas",
      "cidade_oficial": "Tiradentes, MG",
      "categoria_governo": "lojas_artesanato",
      "data_extracao_oficial": "2025-07-29T06:04:12.319828",
      "auditoria_governo": "COMPLETA",
      "latitude": -21.117915399999998,
      "longitude": -44.1682586
    },
    {
      "position": 6,
      "title": "Arte Vó Joana",
      "place_id": "ChIJuSGpOqy4oQAR74PeBzdik4M",
      "rating": 4.7,
      "reviews": 3,
      "type": "Artesanato",
      "address": "Av. Gov. Israel Pinheiro, 196 - Tiradentes, MG, 36325-000, Brasil",
      "phone": "+55 32 3355-1775",
      "website": "",
      "hours": "Aberto 24 horas",
      "cidade_oficial": "Tiradentes, MG",
      "categoria_governo": "lojas_artesanato",
      "data_extracao_oficial": "2025-07-29T06:04:12.319828",
      "auditoria_governo": "COMPLETA",
      "latitude": -21.1200343,
      "longitude": -44.1695096
    },
    {
      "position": 7,
      "title": "Feira de Artesanato",
      "place_id": "ChIJdfjRhiG5oQARXrVzpxl-MPw",
      "rating": 4,
      "reviews": 24,
      "type": "Feira de artesanato",
      "address": "R. Custódio Gomes, 39 - Tiradentes, MG, 36325-000, Brasil",
      "phone": "",
      "website": "",
      "hours": "Fechado ⋅ Abre sex. às 09:00",
      "cidade_oficial": "Tiradentes, MG",
      "categoria_governo": "lojas_artesanato",
      "data_extracao_oficial": "2025-07-29T06:04:12.319828",
      "auditoria_governo": "COMPLETA",
      "latitude": -21.1090533,
      "longitude": -44.174908599999995
    },
    {
      "position": 8,
      "title": "Mãos de Chica Artesanato",
      "place_id": "ChIJ1WjE-qW5oQARxsH_N7mx9DA",
      "rating": 4.8,
      "reviews": 4,
      "type": "Artesanato",
      "address": "R. Min. Gabriel Passos, 160 - Centro, Tiradentes - MG, 36325-000, Brasil",
      "phone": "+55 32 98868-5313",
      "website": "",
      "hours": "Fechado ⋅ Abre às 10:00",
      "cidade_oficial": "Tiradentes, MG",
      "categoria_governo": "lojas_artesanato",
      "data_extracao_oficial": "2025-07-29T06:04:12.319828",
      "auditoria_governo": "COMPLETA",
      "latitude": -21.1094278,
      "longitude": -44.175260699999995
    },
    {
      "position": 9,
      "title": "Artesanato clebinho",
      "place_id": "ChIJVSBfKa2_oQARIuxh48UXf4U",
      "rating": 4.9,
      "reviews": 13,
      "type": "Artesanato",
      "address": "R. Alvarenga Peixoto, 1089 - Capote, Tiradentes - MG, 36325-000, Brasil",
      "phone": "+55 32 99961-7021",
      "website": "",
      "hours": "Fechado ⋅ Abre às 09:00",
      "cidade_oficial": "Tiradentes, MG",
      "categoria_governo": "lojas_artesanato",
      "data_extracao_oficial": "2025-07-29T06:04:12.319828",
      "auditoria_governo": "COMPLETA",
      "latitude": -21.1056986,
      "longitude": -44.155581999999995
    },
    {
      "position": 10,
      "title": "-Pães Caseiro Artesanais Tiradentes-Feira dos Produtores -Estação da María Fumaça",
      "place_id": "ChIJIYYe-fq_oQAR6udI-oUeBKE",
      "rating": 5,
      "reviews": 1,
      "type": "Feira de artesanato",
      "address": "Av. Gov. Israel Pinheiro, 72 - Tiradentes, MG, 36325-000, Brasil",
      "phone": "+55 32 99162-6330",
      "website": "",
      "hours": "Fechado ⋅ Abre qui. às 09:00",
      "cidade_oficial": "Tiradentes, MG",
      "categoria_governo": "lojas_artesanato",
      "data_extracao_oficial": "2025-07-29T06:04:12.319828",
      "auditoria_governo": "COMPLETA",
      "latitude": -21.1146834,
      "longitude": -44.168067199999996
    },
    {
      "position": 11,
      "title": "Arte em Dobro",
      "place_id": "ChIJXzL3B1jHoQARBKmFaT7K-qU",
      "rating": 4.7,
      "reviews": 16,
      "type": "Loja de materiais para artesanato",
      "address": "R. Alvarenga Peixoto, 970 - Tiradentes, MG, 36325-000, Brasil",
      "phone": "+55 32 99117-4034",
      "website": "",
      "hours": "Fechado ⋅ Abre às 08:00",
      "cidade_oficial": "Tiradentes, MG",
      "categoria_governo": "lojas_artesanato",
      "data_extracao_oficial": "2025-07-29T06:04:12.319828",
      "auditoria_governo": "COMPLETA",
      "latitude": -21.1063828,
      "longitude": -44.1568269
    },
    {
      "position": 12,
      "title": "Mãos de Fada artesanato tds",
      "place_id": "ChIJWUkzU_q5oQARhd211ie-hJA",
      "rating": 5,
      "reviews": 6,
      "type": "Artesanato",
      "address": "Praça das mercês 69 1, R. Min. Gabriel Passos, 131 - loja 2 - Centro, Tiradentes - MG, 36325-000, Brasil",
      "phone": "+55 32 99922-8121",
      "website": "",
      "hours": "Fechado ⋅ Abre qua. às 10:00",
      "cidade_oficial": "Tiradentes, MG",
      "categoria_governo": "lojas_artesanato",
      "data_extracao_oficial": "2025-07-29T06:04:12.319828",
      "auditoria_governo": "COMPLETA",
      "latitude": -21.1102474,
      "longitude": -44.174592
    },
    {
      "position": 13,
      "title": "Libertas Rosas Artesanato em Ferro",
      "place_id": "ChIJS3Z0W1O_oQARo6EI4TFj5vQ",
      "rating": 4.9,
      "reviews": 18,
      "type": "Artesanato",
      "address": "R. dos Inconfidentes, 275 - Tiradentes, MG, 36325-000, Brasil",
      "phone": "+55 32 98892-2561",
      "website": "https://www.libertasrosas.com.br/",
      "hours": "Fechado ⋅ Abre às 08:30",
      "cidade_oficial": "Tiradentes, MG",
      "categoria_governo": "lojas_artesanato",
      "data_extracao_oficial": "2025-07-29T06:04:12.319828",
      "auditoria_governo": "COMPLETA",
      "latitude": -21.111179699999997,
      "longitude": -44.1711965
    },
    {
      "position": 14,
      "title": "Brasileirinho A Casa de Arte do Brasil",
      "place_id": "ChIJrdpOpK64oQARmJy3etfls_s",
      "rating": 4,
      "reviews": 8,
      "type": "Loja",
      "address": "R. Direita, 129 - Centro, Tiradentes - MG, 36325-000, Brasil",
      "phone": "+55 32 98856-7002",
      "website": "https://brasileirinhotiradentes.com.br/",
      "hours": "Fechado ⋅ Abre às 10:00",
      "cidade_oficial": "Tiradentes, MG",
      "categoria_governo": "lojas_artesanato",
      "data_extracao_oficial": "2025-07-29T06:04:12.319828",
      "auditoria_governo": "COMPLETA",
      "latitude": -21.1096993,
      "longitude": -44.1761361
    },
    {
      "position": 15,
      "title": "Vantuil Artesanato",
      "place_id": "ChIJd-KQVKe4oQAR1G1mBq4UjsA",
      "rating": 4.9,
      "reviews": 7,
      "type": "Loja de artigos domésticos",
      "address": "R. Frei Veloso, 795 - Tiradentes, MG, 36325-000, Brasil",
      "phone": "+55 32 99822-4098",
      "website": "http://vantuil-artesanato9.webnode.com/",
      "hours": "Fechado ⋅ Abre às 08:00",
      "cidade_oficial": "Tiradentes, MG",
      "categoria_governo": "lojas_artesanato",
      "data_extracao_oficial": "2025-07-29T06:04:12.319828",
      "auditoria_governo": "COMPLETA",
      "latitude": -21.111232299999998,
      "longitude": -44.1861635
    },
    {
      "position": 17,
      "title": "Loja JG Móveis e Artesanato",
      "place_id": "ChIJtS__QEW_oQARUpZLqyC6-RM",
      "rating": 5,
      "reviews": 1,
      "type": "Artesanato",
      "address": "R. Alvarenga Peixoto, 702 - Tiradentes, MG, 36325-000, Brasil",
      "phone": "+55 11 93076-3398",
      "website": "https://www.facebook.com/jg.moveiseartes/",
      "hours": "Fechado ⋅ Abre às 10:00",
      "cidade_oficial": "Tiradentes, MG",
      "categoria_governo": "lojas_artesanato",
      "data_extracao_oficial": "2025-07-29T06:04:12.319828",
      "auditoria_governo": "COMPLETA",
      "latitude": -21.109138299999998,
      "longitude": -44.1615373
    },
    {
      "position": 18,
      "title": "Minas Arte Própria (móveis Decoração Ferro Madeira Artesanatos Tiradentes Mg )",
      "place_id": "ChIJkRGHSYu5oQARwSqb6Uq45fc",
      "rating": 4.7,
      "reviews": 9,
      "type": "Loja de móveis rústicos",
      "address": "R. dos Inconfidentes, 103 B - Centro, Tiradentes - MG, 36325-000, Brasil",
      "phone": "+55 32 98841-3582",
      "website": "http://www.minasartepropria.com.br/",
      "hours": "Fechado ⋅ Abre às 10:00",
      "cidade_oficial": "Tiradentes, MG",
      "categoria_governo": "lojas_artesanato",
      "data_extracao_oficial": "2025-07-29T06:04:12.319828",
      "auditoria_governo": "COMPLETA",
      "latitude": -21.1111036,
      "longitude": -44.172847399999995
    },
    {
      "position": 20,
      "title": "Moitará Arte Indígena",
      "place_id": "ChIJ-2eoD0G_oQARlz57vbyDvNk",
      "rating": 4.8,
      "reviews": 54,
      "type": "Galeria de Arte",
      "address": "Capote (estrada para o Bichinho, R. Alvarenga Peixoto, 1027 - Tiradentes, MG, 36325-000, Brasil",
      "phone": "+55 32 98703-1230",
      "website": "http://www.moitara.com.br/",
      "hours": "Fechado ⋅ Abre qua. às 09:00",
      "cidade_oficial": "Tiradentes, MG",
      "categoria_governo": "lojas_artesanato",
      "data_extracao_oficial": "2025-07-29T06:04:12.319828",
      "auditoria_governo": "COMPLETA",
      "latitude": -21.1061233,
      "longitude": -44.1566419
    },
    {
      "position": 3,
      "title": "Divinas Gerais Móveis Rústicos e Decorações",
      "place_id": "ChIJidlDErPAoQARKVjgkw19ApM",
      "rating": 4.9,
      "reviews": 54,
      "type": "Loja de móveis",
      "address": "loja da fábrica -Avenida Governador Israel Pinheiro, 950, R. Direita, 139 - loja 2 - Várzea, Tiradentes - MG, 36325-000, Brasil",
      "phone": "+55 32 98861-6584",
      "website": "https://www.instagram.com/divinasgerais",
      "hours": "Fechado ⋅ Abre às 09:00",
      "cidade_oficial": "Tiradentes, MG",
      "categoria_governo": "lojas_decoracao",
      "data_extracao_oficial": "2025-07-29T06:04:14.008629",
      "auditoria_governo": "COMPLETA",
      "latitude": -21.1295099,
      "longitude": -44.1704662
    },
    {
      "position": 4,
      "title": "Graziela Guimarães",
      "place_id": "ChIJu5nWKKy4oQAR7ibkr-5pOho",
      "rating": 4.8,
      "reviews": 12,
      "type": "Loja de artigos para cama, mesa e banho",
      "address": "R. da Camara, 34 - Centro, Tiradentes - MG, 36325-000, Brasil",
      "phone": "+55 32 3355-1410",
      "website": "http://www.grazielaguimaraes.com.br/",
      "hours": "Fechado ⋅ Abre às 11:00",
      "cidade_oficial": "Tiradentes, MG",
      "categoria_governo": "lojas_decoracao",
      "data_extracao_oficial": "2025-07-29T06:04:14.008629",
      "auditoria_governo": "COMPLETA",
      "latitude": -21.1097268,
      "longitude": -44.177707299999994
    },
    {
      "position": 5,
      "title": "Empório Patrícia Barbosa",
      "place_id": "ChIJL1ozg6y4oQARQv0aHm5_iSA",
      "rating": 4.9,
      "reviews": 16,
      "type": "Loja de móveis",
      "address": "R. Resende Costa, 48 - Tiradentes, MG, 36325-000, Brasil",
      "phone": "+55 32 3355-1158",
      "website": "http://www.emporiopatriciabarbosa.com.br/",
      "hours": "Fechado ⋅ Abre às 09:00",
      "cidade_oficial": "Tiradentes, MG",
      "categoria_governo": "lojas_decoracao",
      "data_extracao_oficial": "2025-07-29T06:04:14.008629",
      "auditoria_governo": "COMPLETA",
      "latitude": -21.110818,
      "longitude": -44.174606999999995
    },
    {
      "position": 9,
      "title": "Canto de Casa",
      "place_id": "ChIJr5L2XAK5oQARsO6ZD0O0LKo",
      "rating": 5,
      "reviews": 7,
      "type": "Loja de artigos domésticos",
      "address": "Largo das Forras, 04 - Centro, Tiradentes - MG, 36325-000, Brasil",
      "phone": "+55 32 98866-1858",
      "website": "",
      "hours": "Fechado ⋅ Abre qua. às 09:00",
      "cidade_oficial": "Tiradentes, MG",
      "categoria_governo": "lojas_decoracao",
      "data_extracao_oficial": "2025-07-29T06:04:14.008629",
      "auditoria_governo": "COMPLETA",
      "latitude": -21.1106551,
      "longitude": -44.174195999999995
    },
    {
      "position": 11,
      "title": "Carapina Móveis",
      "place_id": "ChIJvwdqk1W_oQAR3mi3XsgPCRA",
      "rating": 5,
      "reviews": 12,
      "type": "Loja de móveis rústicos",
      "address": "Av. Gov. Israel Pinheiro, 280 - Estacao, Tiradentes - MG, 36325-000, Brasil",
      "phone": "+55 32 98514-2556",
      "website": "http://carapinamoveis.com.br/",
      "hours": "Fechado ⋅ Abre às 09:00",
      "cidade_oficial": "Tiradentes, MG",
      "categoria_governo": "lojas_decoracao",
      "data_extracao_oficial": "2025-07-29T06:04:14.008629",
      "auditoria_governo": "COMPLETA",
      "latitude": -21.116409299999997,
      "longitude": -44.168541499999996
    },
    {
      "position": 12,
      "title": "Bendita Santíssima Arte & Móveis Rústicos",
      "place_id": "ChIJYaID6rzHoQARC0wLgPISGPI",
      "rating": 4.8,
      "reviews": 27,
      "type": "Loja de móveis",
      "address": "L.go do Ó, 15 C - Centro, Tiradentes - MG, 36325-000, Brasil",
      "phone": "+55 32 99925-8896",
      "website": "http://www.benditasantissimamoveis.com.br/",
      "hours": "Fechado ⋅ Abre às 08:30",
      "cidade_oficial": "Tiradentes, MG",
      "categoria_governo": "lojas_decoracao",
      "data_extracao_oficial": "2025-07-29T06:04:14.008629",
      "auditoria_governo": "COMPLETA",
      "latitude": -21.108624799999998,
      "longitude": -44.177092599999995
    },
    {
      "position": 13,
      "title": "Casa da Pedra Decoração",
      "place_id": "ChIJUwxTVEG_oQARQGYC-yUlGLo",
      "rating": 5,
      "reviews": 2,
      "type": "Loja de pedras",
      "address": "R. Alvarenga Peixoto, 813 - Tiradentes, MG, 36325-000, Brasil",
      "phone": "+55 32 99977-5351",
      "website": "",
      "hours": "Fechado ⋅ Abre às 09:00",
      "cidade_oficial": "Tiradentes, MG",
      "categoria_governo": "lojas_decoracao",
      "data_extracao_oficial": "2025-07-29T06:04:14.008629",
      "auditoria_governo": "COMPLETA",
      "latitude": -21.106685,
      "longitude": -44.158062699999995
    },
    {
      "position": 14,
      "title": "CASA DE MARIA DECORAÇÕES",
      "place_id": "ChIJG7IiDwC5oQARGuZjj04Ayok",
      "rating": 5,
      "reviews": 1,
      "type": "Loja de artigos domésticos",
      "address": "R. Resende Costa, 45 - Tiradentes, MG, 36325-000, Brasil",
      "phone": "",
      "website": "",
      "hours": "Fechado ⋅ Abre às 09:00",
      "cidade_oficial": "Tiradentes, MG",
      "categoria_governo": "lojas_decoracao",
      "data_extracao_oficial": "2025-07-29T06:04:14.008629",
      "auditoria_governo": "COMPLETA",
      "latitude": -21.1106227,
      "longitude": -44.174637
    },
    {
      "position": 15,
      "title": "Silveira moveis",
      "place_id": "ChIJy64oI7O_oQARgVz3NjVC37k",
      "rating": 5,
      "reviews": 3,
      "type": "Loja de móveis",
      "address": "Rua padroeiro santo, R. Padroeiro Santo Antônio, 253 - Cascalho, Tiradentes - MG, 36325-000, Brasil",
      "phone": "+55 32 99184-4005",
      "website": "",
      "hours": "Aberto 24 horas",
      "cidade_oficial": "Tiradentes, MG",
      "categoria_governo": "lojas_decoracao",
      "data_extracao_oficial": "2025-07-29T06:04:14.008629",
      "auditoria_governo": "COMPLETA",
      "latitude": -21.107838299999997,
      "longitude": -44.1701134
    },
    {
      "position": 16,
      "title": "Empório do Ó",
      "place_id": "ChIJMwvuv1O_oQARN24Htgy6Q2M",
      "rating": 4.5,
      "reviews": 71,
      "type": "Empório gourmet",
      "address": "R. Direita, 224 - Centro, Tiradentes - MG, 36325-000, Brasil",
      "phone": "+55 32 3355-2315",
      "website": "",
      "hours": "Fechado ⋅ Abre às 12:00",
      "cidade_oficial": "Tiradentes, MG",
      "categoria_governo": "lojas_decoracao",
      "data_extracao_oficial": "2025-07-29T06:04:14.008629",
      "auditoria_governo": "COMPLETA",
      "latitude": -21.110311,
      "longitude": -44.1755034
    },
    {
      "position": 17,
      "title": "Marcenaria Tiradentes",
      "place_id": "ChIJyeJMUVO_oQAReJUgVtjHVdE",
      "rating": 4.8,
      "reviews": 24,
      "type": "Loja de artigos domésticos",
      "address": "R. dos Inconfidentes, 233 - Tiradentes, MG, 36325-000, Brasil",
      "phone": "+55 32 98418-8641",
      "website": "http://www.marcenariatiradentes.com.br/",
      "hours": "Fechado ⋅ Abre às 09:00",
      "cidade_oficial": "Tiradentes, MG",
      "categoria_governo": "lojas_decoracao",
      "data_extracao_oficial": "2025-07-29T06:04:14.008629",
      "auditoria_governo": "COMPLETA",
      "latitude": -21.111017099999998,
      "longitude": -44.171575399999995
    },
    {
      "position": 20,
      "title": "Ó Barroco",
      "place_id": "ChIJ1e88J6y4oQARoPKkLRjT1t8",
      "rating": 5,
      "reviews": 10,
      "type": "Antiquário",
      "address": "R. do Chafariz, 54 - Centro, Tiradentes - MG, 36325-000, Brasil",
      "phone": "+55 32 98856-1907",
      "website": "",
      "hours": "Fechado ⋅ Abre às 10:00",
      "cidade_oficial": "Tiradentes, MG",
      "categoria_governo": "lojas_decoracao",
      "data_extracao_oficial": "2025-07-29T06:04:14.008629",
      "auditoria_governo": "COMPLETA",
      "latitude": -21.1087053,
      "longitude": -44.1769196
    },
    {
      "position": 1,
      "title": "Galeria de Arte Oscar Araripe",
      "place_id": "ChIJGVMwnq64oQARSmoxUOAlm-c",
      "rating": 4.8,
      "reviews": 11,
      "type": "Galeria de Arte",
      "address": "R. da Camara, 92 - Centro, Tiradentes - MG, 36325-000, Brasil",
      "phone": "+55 32 3355-1148",
      "website": "http://www.oscarararipe.com.br/",
      "hours": "Fechado ⋅ Abre às 09:00",
      "cidade_oficial": "Tiradentes, MG",
      "categoria_governo": "galerias_arte",
      "data_extracao_oficial": "2025-07-29T06:04:16.149585",
      "auditoria_governo": "COMPLETA",
      "latitude": -21.109433499999998,
      "longitude": -44.177427099999996
    },
    {
      "position": 2,
      "title": "Sergio Ramos Atelier e Galeria de Arte Ltda",
      "place_id": "ChIJxTRm_Ku4oQARNKVMLaA0KKY",
      "rating": 4.9,
      "reviews": 50,
      "type": "Galeria de Arte",
      "address": "R. da Camara, 83 - Centro Histórico, Tiradentes - MG, 36325-000, Brasil",
      "phone": "+55 32 98707-7914",
      "website": "http://www.atelierdoarquiteto.com.br/",
      "hours": "Fechado ⋅ Abre às 10:00",
      "cidade_oficial": "Tiradentes, MG",
      "categoria_governo": "galerias_arte",
      "data_extracao_oficial": "2025-07-29T06:04:16.149585",
      "auditoria_governo": "COMPLETA",
      "latitude": -21.109413699999998,
      "longitude": -44.177526199999996
    },
    {
      "position": 3,
      "title": "Território Tiradentes",
      "place_id": "ChIJR9i3BCC5oQARWQ7KN32s8tc",
      "rating": 4.8,
      "reviews": 5,
      "type": "Galeria de Arte",
      "address": "R. da Camara, 103 - Tiradentes, MG, 36325-000, Brasil",
      "phone": "+55 21 97002-7833",
      "website": "",
      "hours": "Fechado ⋅ Abre às 10:00",
      "cidade_oficial": "Tiradentes, MG",
      "categoria_governo": "galerias_arte",
      "data_extracao_oficial": "2025-07-29T06:04:16.149585",
      "auditoria_governo": "COMPLETA",
      "latitude": -21.1092679,
      "longitude": -44.1774582
    },
    {
      "position": 4,
      "title": "GALERIA JB LAZZARINI",
      "place_id": "ChIJJ-86Y7C5oQARzBFtbb3BpVI",
      "rating": 5,
      "reviews": 14,
      "type": "Galeria de Arte",
      "address": "Av. Gov. Israel Pinheiro, 780 - Parque dos Bandeirantes, Tiradentes - MG, 36325-000, Brasil",
      "phone": "+55 31 99833-8822",
      "website": "http://www.jblazzarini.com.br/",
      "hours": "Fechado ⋅ Abre qua. às 09:00",
      "cidade_oficial": "Tiradentes, MG",
      "categoria_governo": "galerias_arte",
      "data_extracao_oficial": "2025-07-29T06:04:16.149585",
      "auditoria_governo": "COMPLETA",
      "latitude": -21.1288903,
      "longitude": -44.1707265
    },
    {
      "position": 6,
      "title": "Badalo Studio Galeria",
      "place_id": "ChIJkZhl3nu_oQARM8YDxzHN_No",
      "rating": 5,
      "reviews": 6,
      "type": "Galeria de Arte",
      "address": "R. Alvarenga Peixoto, 1637 - Capote, Tiradentes - MG, 36325-000, Brasil",
      "phone": "+55 32 99908-1268",
      "website": "",
      "hours": "Fechado ⋅ Abre às 09:00",
      "cidade_oficial": "Tiradentes, MG",
      "categoria_governo": "galerias_arte",
      "data_extracao_oficial": "2025-07-29T06:04:16.149585",
      "auditoria_governo": "COMPLETA",
      "latitude": -21.1035577,
      "longitude": -44.153416
    },
    {
      "position": 7,
      "title": "Ateliê Valin Branco",
      "place_id": "ChIJf8I9bFO_oQARqz_pV00wL54",
      "rating": 4.9,
      "reviews": 15,
      "type": "Galeria de Arte",
      "address": "R. dos Inconfidentes, 349 - Tiradentes, MG, 36325-000, Brasil",
      "phone": "+55 32 99115-9613",
      "website": "",
      "hours": "Fechado ⋅ Abre às 09:30",
      "cidade_oficial": "Tiradentes, MG",
      "categoria_governo": "galerias_arte",
      "data_extracao_oficial": "2025-07-29T06:04:16.149585",
      "auditoria_governo": "COMPLETA",
      "latitude": -21.1110406,
      "longitude": -44.1705233
    },
    {
      "position": 8,
      "title": "Galería por Thi",
      "place_id": "ChIJWZy4TnO5oQARPRJboGAPX8c",
      "rating": "",
      "reviews": 0,
      "type": "Galeria de Arte",
      "address": "R. Direita, 266 - Centro, Tiradentes - MG, 36325-000, Brasil",
      "phone": "+55 32 99178-8000",
      "website": "",
      "hours": "Fechado ⋅ Abre às 10:00",
      "cidade_oficial": "Tiradentes, MG",
      "categoria_governo": "galerias_arte",
      "data_extracao_oficial": "2025-07-29T06:04:16.149585",
      "auditoria_governo": "COMPLETA",
      "latitude": -21.1106554,
      "longitude": -44.1753636
    },
    {
      "position": 2,
      "title": "KAYA TATTOO studio & escola",
      "place_id": "ChIJ7eTbXFO_oQARNu4o7G0NCmc",
      "rating": 4.8,
      "reviews": 197,
      "type": "Estúdio de tatuagem e colocação de piercing",
      "address": "R. Antônio Teixeira Carvalho, 148 - Centro, Tiradentes - MG, 36325-000, Brasil",
      "phone": "+55 32 99940-5902",
      "website": "",
      "hours": "Fechado ⋅ Abre às 09:00",
      "cidade_oficial": "Tiradentes, MG",
      "categoria_governo": "estudios_arte",
      "data_extracao_oficial": "2025-07-29T06:04:19.640539",
      "auditoria_governo": "COMPLETA",
      "latitude": -21.112975,
      "longitude": -44.168676999999995
    },
    {
      "position": 3,
      "title": "LAUD",
      "place_id": "ChIJW2JnY6y4oQARoVChgcC2yLY",
      "rating": 5,
      "reviews": 4,
      "type": "Estúdio de pintura",
      "address": "CPF/CNPJ: 18.670.376/0001-79, R. Min. Gabriel Passos, 30 - store - Centro, Tiradentes - MG, 36325-000, Brasil",
      "phone": "+55 32 98877-0002",
      "website": "",
      "hours": "",
      "cidade_oficial": "Tiradentes, MG",
      "categoria_governo": "estudios_arte",
      "data_extracao_oficial": "2025-07-29T06:04:19.640539",
      "auditoria_governo": "COMPLETA",
      "latitude": -21.1098648,
      "longitude": -44.1746713
    },
    {
      "position": 4,
      "title": "RM Cerâmica Artística",
      "place_id": "ChIJdXZDD1K_oQARIEE6fXHcvm0",
      "rating": 5,
      "reviews": 17,
      "type": "Centro de arte",
      "address": "R. Ver. Antônio Hipólito Nascimento, 128 - Cascalho, Tiradentes - MG, 36325-000, Brasil",
      "phone": "+55 32 99829-1060",
      "website": "https://www.rmceramicaartistica.com.br/",
      "hours": "Fechado ⋅ Abre às 10:00",
      "cidade_oficial": "Tiradentes, MG",
      "categoria_governo": "estudios_arte",
      "data_extracao_oficial": "2025-07-29T06:04:19.640539",
      "auditoria_governo": "COMPLETA",
      "latitude": -21.1072915,
      "longitude": -44.171059899999996
    },
    {
      "position": 9,
      "title": "Traços de Época",
      "place_id": "ChIJszSJ9Ku4oQARaTHPP2O1ysg",
      "rating": 3.7,
      "reviews": 10,
      "type": "Estúdio de fotografia",
      "address": "R. Padre Toledo, 114 - Centro, Tiradentes - MG, 36325-000, Brasil",
      "phone": "+55 32 3355-1875",
      "website": "",
      "hours": "Temporarily closed",
      "cidade_oficial": "Tiradentes, MG",
      "categoria_governo": "estudios_arte",
      "data_extracao_oficial": "2025-07-29T06:04:19.640539",
      "auditoria_governo": "COMPLETA",
      "latitude": -21.110591499999998,
      "longitude": -44.1772874
    },
    {
      "position": 10,
      "title": "Produção Nacional - Ateliê Vinícius Rosa Rios",
      "place_id": "ChIJCQicw1O_oQARWkzA1aB4QA4",
      "rating": 4.8,
      "reviews": 10,
      "type": "Centro de arte",
      "address": "R. Joaquim Ramalho, 164 - Tiradentes, MG, 36325-000, Brasil",
      "phone": "+55 32 98877-1337",
      "website": "",
      "hours": "Fechado ⋅ Abre às 08:00",
      "cidade_oficial": "Tiradentes, MG",
      "categoria_governo": "estudios_arte",
      "data_extracao_oficial": "2025-07-29T06:04:19.640539",
      "auditoria_governo": "COMPLETA",
      "latitude": -21.1112735,
      "longitude": -44.168040399999995
    },
    {
      "position": 12,
      "title": "Estúdio Márcia silva",
      "place_id": "ChIJXb0wtJG_oQARsJQvYGfmfm8",
      "rating": 5,
      "reviews": 42,
      "type": "Salão de Beleza",
      "address": "R. Francisco Pereira Morais, 206 - Tiradentes, MG, 36325-000, Brasil",
      "phone": "+55 21 98513-5585",
      "website": "",
      "hours": "Fechado ⋅ Abre às 08:00",
      "cidade_oficial": "Tiradentes, MG",
      "categoria_governo": "estudios_arte",
      "data_extracao_oficial": "2025-07-29T06:04:19.640539",
      "auditoria_governo": "COMPLETA",
      "latitude": -21.1095477,
      "longitude": -44.168966
    },
    {
      "position": 13,
      "title": "Origem das Artes",
      "place_id": "ChIJZQWQSlO5oQARN0IOEuVh1mA",
      "rating": "",
      "reviews": 0,
      "type": "Designer de interiores",
      "address": "R. Min. Gabriel Passos, 186A - Centro, Tiradentes - MG, 36325-000, Brasil",
      "phone": "+55 32 99922-1363",
      "website": "",
      "hours": "Fechado ⋅ Abre às 09:00",
      "cidade_oficial": "Tiradentes, MG",
      "categoria_governo": "estudios_arte",
      "data_extracao_oficial": "2025-07-29T06:04:19.640539",
      "auditoria_governo": "COMPLETA",
      "latitude": -21.1091914,
      "longitude": -44.175604799999995
    },
    {
      "position": 14,
      "title": "Design Filmes",
      "place_id": "ChIJQ5nLKY7IoQARqBKl3aAASO8",
      "rating": 5,
      "reviews": 1,
      "type": "Estúdio de fotografia",
      "address": "Av. Gov. Israel Pinheiro, 104 - Várzea de Baixo, Tiradentes - MG, 36325-000, Brasil",
      "phone": "+55 31 99692-5005",
      "website": "http://www.designfilmes.com/",
      "hours": "Fechado ⋅ Abre às 08:00",
      "cidade_oficial": "Tiradentes, MG",
      "categoria_governo": "estudios_arte",
      "data_extracao_oficial": "2025-07-29T06:04:19.640539",
      "auditoria_governo": "COMPLETA",
      "latitude": -21.119386,
      "longitude": -44.169030799999994
    },
    {
      "position": 1,
      "title": "50 Tons de Malte",
      "place_id": "ChIJRQKh6q64oQARH6Qe7zW3Wvg",
      "rating": 4.8,
      "reviews": 495,
      "type": "Bar de cervejas",
      "address": "R. dos Inconfidentes, 98 - Centro Histórico, Tiradentes - MG, 36325-000, Brasil",
      "phone": "+55 32 99833-1316",
      "website": "http://www.facebook.com/50tonsdemalte",
      "hours": "Fechado ⋅ Abre qua. às 16:00",
      "cidade_oficial": "Tiradentes, MG",
      "categoria_governo": "cervejarias_artesanais",
      "data_extracao_oficial": "2025-07-29T06:04:23.037959",
      "auditoria_governo": "COMPLETA",
      "latitude": -21.111201299999998,
      "longitude": -44.1729905
    },
    {
      "position": 2,
      "title": "Cervejaria em Tiradentes - Duquim",
      "place_id": "ChIJnXmF5tO_oQARrNetotbq6OI",
      "rating": 4.6,
      "reviews": 208,
      "type": "Bar de cervejas",
      "address": "R. Alvarenga Peixoto, 1548 - Tiradentes, MG, 36325-000, Brasil",
      "phone": "+55 37 99988-4104",
      "website": "https://www.instagram.com/cervejariaduquim",
      "hours": "Fechado ⋅ Abre sex. às 11:00",
      "cidade_oficial": "Tiradentes, MG",
      "categoria_governo": "cervejarias_artesanais",
      "data_extracao_oficial": "2025-07-29T06:04:23.037959",
      "auditoria_governo": "COMPLETA",
      "latitude": -21.1044898,
      "longitude": -44.1542029
    },
    {
      "position": 3,
      "title": "Cervejaria Sanfras",
      "place_id": "ChIJyfIGLmPBoQARCx5l0Y4Xu-M",
      "rating": 5,
      "reviews": 40,
      "type": "Microcervejaria",
      "address": "Av. Gov. Israel Pinheiro, 1700 - Parque dos Bandeirantes, Tiradentes - MG, 36325-000, Brasil",
      "phone": "+55 32 98879-7044",
      "website": "https://www.instagram.com/cervejaria_sanfras/",
      "hours": "Fechado ⋅ Abre às 07:30",
      "cidade_oficial": "Tiradentes, MG",
      "categoria_governo": "cervejarias_artesanais",
      "data_extracao_oficial": "2025-07-29T06:04:23.037959",
      "auditoria_governo": "COMPLETA",
      "latitude": -21.132811399999998,
      "longitude": -44.1693912
    },
    {
      "position": 4,
      "title": "Entrepot du Vin",
      "place_id": "ChIJQ4q2Cqy4oQARsngfa4n5Y0w",
      "rating": 4.8,
      "reviews": 505,
      "type": "Bar de vinhos",
      "address": "R. Direita, 205 - Tiradentes, MG, 36325-000, Brasil",
      "phone": "+55 32 99992-2050",
      "website": "https://www.instagram.com/entrepotduvin/",
      "hours": "Fechado ⋅ Abre às 14:00",
      "cidade_oficial": "Tiradentes, MG",
      "categoria_governo": "cervejarias_artesanais",
      "data_extracao_oficial": "2025-07-29T06:04:23.037959",
      "auditoria_governo": "COMPLETA",
      "latitude": -21.1101571,
      "longitude": -44.1756083
    },
    {
      "position": 5,
      "title": "Deck Choperia Bar",
      "place_id": "ChIJEVpeR3u5oQARxCTrYNSg_Jk",
      "rating": 4.8,
      "reviews": 159,
      "type": "Restaurante",
      "address": "Praça Silva Jardin, 29 - Centro, Tiradentes - MG, 36325-000, Brasil",
      "phone": "+55 32 99913-9653",
      "website": "",
      "hours": "Fechado ⋅ Abre às 11:00",
      "cidade_oficial": "Tiradentes, MG",
      "categoria_governo": "cervejarias_artesanais",
      "data_extracao_oficial": "2025-07-29T06:04:23.037959",
      "auditoria_governo": "COMPLETA",
      "latitude": -21.1093702,
      "longitude": -44.1751
    },
    {
      "position": 6,
      "title": "Barouk Chopp Beer Café",
      "place_id": "ChIJlbO9h6y4oQAREBTpnZT2RCA",
      "rating": 4.1,
      "reviews": 1281,
      "type": "Bar",
      "address": "R. Min. Gabriel Passos, 23 - Centro, Tiradentes - MG, 36325-000, Brasil",
      "phone": "+55 32 3355-1652",
      "website": "http://barouktiradentes.com.br/",
      "hours": "Fechado ⋅ Abre às 09:30",
      "cidade_oficial": "Tiradentes, MG",
      "categoria_governo": "cervejarias_artesanais",
      "data_extracao_oficial": "2025-07-29T06:04:23.037959",
      "auditoria_governo": "COMPLETA",
      "latitude": -21.110244899999998,
      "longitude": -44.1743892
    },
    {
      "position": 7,
      "title": "Choperia Jardins's.a.",
      "place_id": "ChIJ6d5CYUe5oQARCPKW6fePen0",
      "rating": 3.1,
      "reviews": 52,
      "type": "Bar",
      "address": "R. Pedra Rosa, 73 - Centro, Tiradentes - MG, 36325-000, Brasil",
      "phone": "",
      "website": "",
      "hours": "",
      "cidade_oficial": "Tiradentes, MG",
      "categoria_governo": "cervejarias_artesanais",
      "data_extracao_oficial": "2025-07-29T06:04:23.037959",
      "auditoria_governo": "COMPLETA",
      "latitude": -21.1083186,
      "longitude": -44.177040299999994
    },
    {
      "position": 8,
      "title": "Cervejaria Wiermann",
      "place_id": "ChIJYetK1Zm5oQARJQBD1ZgXHwY",
      "rating": 5,
      "reviews": 1,
      "type": "Microcervejaria",
      "address": "Centro Histórico, Tiradentes - MG, 36325-000, Brasil",
      "phone": "+55 31 99283-0748",
      "website": "",
      "hours": "Temporarily closed",
      "cidade_oficial": "Tiradentes, MG",
      "categoria_governo": "cervejarias_artesanais",
      "data_extracao_oficial": "2025-07-29T06:04:23.037959",
      "auditoria_governo": "COMPLETA",
      "latitude": -21.1102277,
      "longitude": -44.1756016
    },
    {
      "position": 9,
      "title": "Boteco da Fábrica - Chopperia Tiradentes",
      "place_id": "ChIJ1abcTKrAoQARsHebTQaQc8M",
      "rating": 4.3,
      "reviews": 47,
      "type": "Bar",
      "address": "Av. Gov. Israel Pinheiro, 72 - Várzea De Baixo, Tiradentes - MG, 36325-000, Brasil",
      "phone": "+55 31 99722-1517",
      "website": "",
      "hours": "Temporarily closed",
      "cidade_oficial": "Tiradentes, MG",
      "categoria_governo": "cervejarias_artesanais",
      "data_extracao_oficial": "2025-07-29T06:04:23.037959",
      "auditoria_governo": "COMPLETA",
      "latitude": -21.1201302,
      "longitude": -44.168917099999994
    },
    {
      "position": 1,
      "title": "Cachaça Mazuma Mineira - Alambique e Loja",
      "place_id": "ChIJBwNaC02-oQARzPdLHjKKHdE",
      "rating": 4.6,
      "reviews": 2731,
      "type": "Loja de bebidas",
      "address": "Rua São Bento, 300, Bichinho, Prados - MG, 36320-000, Brasil",
      "phone": "+55 32 99928-8004",
      "website": "https://mazuma.com.br/",
      "hours": "Fechado ⋅ Abre às 09:30",
      "cidade_oficial": "Tiradentes, MG",
      "categoria_governo": "alambiques",
      "data_extracao_oficial": "2025-07-29T06:04:24.931790",
      "auditoria_governo": "COMPLETA",
      "latitude": -21.092239,
      "longitude": -44.123317
    },
    {
      "position": 2,
      "title": "Cachaça Velho Ferreira - Tiradentes",
      "place_id": "ChIJ42KxB-e5oQARHgDDymIpp_4",
      "rating": 4.7,
      "reviews": 59,
      "type": "Loja de bebidas alcoólicas",
      "address": "R. Resende Costa, 62 - Centro, Tiradentes - MG, 36325-000, Brasil",
      "phone": "+55 32 99813-6384",
      "website": "https://www.velhoferreira.com.br/",
      "hours": "Fechado ⋅ Abre às 09:00",
      "cidade_oficial": "Tiradentes, MG",
      "categoria_governo": "alambiques",
      "data_extracao_oficial": "2025-07-29T06:04:24.931790",
      "auditoria_governo": "COMPLETA",
      "latitude": -21.1106718,
      "longitude": -44.1744468
    },
    {
      "position": 3,
      "title": "Confidências Mineiras - Ateliê da Cachaça",
      "place_id": "ChIJQ-1Pfay4oQAR3XMsXPjkDqU",
      "rating": 4.2,
      "reviews": 39,
      "type": "Loja de bebidas alcoólicas",
      "address": "R. Min. Gabriel Passos, 210 - A - Centro, Tiradentes - MG, 36325-000, Brasil",
      "phone": "+55 32 99977-2071",
      "website": "https://www.ateliedacachaca.com.br/",
      "hours": "Fechado ⋅ Abre às 10:00",
      "cidade_oficial": "Tiradentes, MG",
      "categoria_governo": "alambiques",
      "data_extracao_oficial": "2025-07-29T06:04:24.931790",
      "auditoria_governo": "COMPLETA",
      "latitude": -21.109054699999998,
      "longitude": -44.1757505
    },
    {
      "position": 4,
      "title": "Du Tonel Cachaçaria e Produtos Artesanais",
      "place_id": "ChIJgSAGak-_oQAR53u016MJYXA",
      "rating": 5,
      "reviews": 5,
      "type": "Loja de Presentes",
      "address": "Estrada Vitoriano Veloso - Zona Rural, Tiradentes - MG, 36325-000, Brasil",
      "phone": "+55 21 99525-1493",
      "website": "",
      "hours": "",
      "cidade_oficial": "Tiradentes, MG",
      "categoria_governo": "alambiques",
      "data_extracao_oficial": "2025-07-29T06:04:24.931790",
      "auditoria_governo": "COMPLETA",
      "latitude": -21.0996576,
      "longitude": -44.146125
    },
    {
      "position": 1,
      "title": "Chico Doceiro",
      "place_id": "ChIJYxnzqFO_oQARV8v-HwStANA",
      "rating": 4.7,
      "reviews": 1363,
      "type": "Doceria",
      "address": "Tv. Francisco Pereira de Morais, 74 - Tiradentes, MG, 36325-000, Brasil",
      "phone": "+55 32 3355-1900",
      "website": "",
      "hours": "Fechado ⋅ Abre às 08:30",
      "cidade_oficial": "Tiradentes, MG",
      "categoria_governo": "docerias",
      "data_extracao_oficial": "2025-07-29T06:04:26.560323",
      "auditoria_governo": "COMPLETA",
      "latitude": -21.1105603,
      "longitude": -44.169650999999995
    },
    {
      "position": 2,
      "title": "Doceria Flor De Lotus",
      "place_id": "ChIJs6iZZay4oQARD9Bjuujfbkg",
      "rating": 4.2,
      "reviews": 143,
      "type": "Doceria",
      "address": "R. Min. Gabriel Passos, 70 - Centro, Tiradentes - MG, 36325-000, Brasil",
      "phone": "+55 32 3355-1445",
      "website": "",
      "hours": "Fechado ⋅ Abre às 09:00",
      "cidade_oficial": "Tiradentes, MG",
      "categoria_governo": "docerias",
      "data_extracao_oficial": "2025-07-29T06:04:26.560323",
      "auditoria_governo": "COMPLETA",
      "latitude": -21.109672,
      "longitude": -44.1749626
    },
    {
      "position": 3,
      "title": "Doce de Leite do Bolota",
      "place_id": "ChIJi2X1Vk2_oQARiXQz_d56_I4",
      "rating": 4.5,
      "reviews": 291,
      "type": "Doceria",
      "address": "Rua Ver, R. Ver. Antônio Hipólito Nascimento, 187 - Tiradentes, MG, 36325-000, Brasil",
      "phone": "+55 32 98827-0292",
      "website": "https://www.facebook.com/docedeleitedobolota",
      "hours": "Fechado ⋅ Abre às 09:00",
      "cidade_oficial": "Tiradentes, MG",
      "categoria_governo": "docerias",
      "data_extracao_oficial": "2025-07-29T06:04:26.560323",
      "auditoria_governo": "COMPLETA",
      "latitude": -21.107358899999998,
      "longitude": -44.1715057
    },
    {
      "position": 4,
      "title": "O Rocambole & Cia",
      "place_id": "ChIJ7ytDbqy4oQARzH4LF-XXow0",
      "rating": 4,
      "reviews": 819,
      "type": "Doceria",
      "address": "R. Min. Gabriel Passos, 115 - Tiradentes, MG, 36325-000, Brasil",
      "phone": "",
      "website": "",
      "hours": "Fechado ⋅ Abre às 09:00",
      "cidade_oficial": "Tiradentes, MG",
      "categoria_governo": "docerias",
      "data_extracao_oficial": "2025-07-29T06:04:26.560323",
      "auditoria_governo": "COMPLETA",
      "latitude": -21.1096552,
      "longitude": -44.1752049
    },
    {
      "position": 5,
      "title": "Padaria Padre Toledo",
      "place_id": "ChIJhwxP9au4oQARwKV89FsmTzE",
      "rating": 4.1,
      "reviews": 667,
      "type": "Padaria",
      "address": "R. Direita, 231 - Centro Histórico, Tiradentes - MG, 36325-000, Brasil",
      "phone": "+55 32 3355-1474",
      "website": "",
      "hours": "",
      "cidade_oficial": "Tiradentes, MG",
      "categoria_governo": "docerias",
      "data_extracao_oficial": "2025-07-29T06:04:26.560323",
      "auditoria_governo": "COMPLETA",
      "latitude": -21.1103328,
      "longitude": -44.1757801
    },
    {
      "position": 6,
      "title": "Confeitaria da Pri",
      "place_id": "ChIJL0Flttu_oQARU7QXZHXisT0",
      "rating": 5,
      "reviews": 13,
      "type": "Confeitaria",
      "address": "R. São José Del Rei - Mococa, Tiradentes - MG, 36325-000, Brasil",
      "phone": "+55 32 98471-1301",
      "website": "https://instagram.com/confeitariadaprii?utm_medium=copy_link",
      "hours": "Fechado ⋅ Abre qua. às 12:30",
      "cidade_oficial": "Tiradentes, MG",
      "categoria_governo": "docerias",
      "data_extracao_oficial": "2025-07-29T06:04:26.560323",
      "auditoria_governo": "COMPLETA",
      "latitude": -21.1173845,
      "longitude": -44.181616399999996
    },
    {
      "position": 7,
      "title": "Jane's Apple",
      "place_id": "ChIJNWuBt5m5oQARWplmabDn5xg",
      "rating": 4.8,
      "reviews": 841,
      "type": "Doceria",
      "address": "R. São Francisco de Paula, 48 - Centro, Tiradentes - MG, 36325-000, Brasil",
      "phone": "+55 32 99938-0229",
      "website": "https://janesapple.com.br/",
      "hours": "Fechado ⋅ Abre qui. às 14:00",
      "cidade_oficial": "Tiradentes, MG",
      "categoria_governo": "docerias",
      "data_extracao_oficial": "2025-07-29T06:04:26.560323",
      "auditoria_governo": "COMPLETA",
      "latitude": -21.1095209,
      "longitude": -44.1736699
    },
    {
      "position": 8,
      "title": "Doceria Flor De Lotus",
      "place_id": "ChIJAe6fXFO_oQAR9lDOoTt2Ka8",
      "rating": 2.7,
      "reviews": 10,
      "type": "Loja",
      "address": "R. dos Inconfidentes, 285 - Centro, Tiradentes - MG, 36325-000, Brasil",
      "phone": "",
      "website": "",
      "hours": "Fechado ⋅ Abre às 09:00",
      "cidade_oficial": "Tiradentes, MG",
      "categoria_governo": "docerias",
      "data_extracao_oficial": "2025-07-29T06:04:26.560323",
      "auditoria_governo": "COMPLETA",
      "latitude": -21.1111695,
      "longitude": -44.1711333
    },
    {
      "position": 9,
      "title": "Vitoriano Doces - Loja Tiradentes",
      "place_id": "ChIJi2K23ry5oQARhGH2LoMuQB0",
      "rating": 4.2,
      "reviews": 5,
      "type": "Doceria",
      "address": "R. Min. Gabriel Passos, 238 - Centro, Tiradentes - MG, 36325-000, Brasil",
      "phone": "+55 32 98491-4502",
      "website": "https://www.vitorianodoces.com.br/",
      "hours": "Fechado ⋅ Abre qui. às 09:00",
      "cidade_oficial": "Tiradentes, MG",
      "categoria_governo": "docerias",
      "data_extracao_oficial": "2025-07-29T06:04:26.560323",
      "auditoria_governo": "COMPLETA",
      "latitude": -21.1089254,
      "longitude": -44.175848599999995
    },
    {
      "position": 10,
      "title": "Vitoriano Doces - Loja Rua Direita, Tiradentes",
      "place_id": "ChIJDTblWgC5oQARyHzt9ILD1qY",
      "rating": 5,
      "reviews": 1,
      "type": "Doceria",
      "address": "R. Direita, 10 - Centro Histórico, Tiradentes - MG, 36325-000, Brasil",
      "phone": "+55 32 98491-4502",
      "website": "http://www.vitorianodoces.com.br/",
      "hours": "Fechado ⋅ Abre qui. às 09:00",
      "cidade_oficial": "Tiradentes, MG",
      "categoria_governo": "docerias",
      "data_extracao_oficial": "2025-07-29T06:04:26.560323",
      "auditoria_governo": "COMPLETA",
      "latitude": -21.1091399,
      "longitude": -44.1772515
    },
    {
      "position": 11,
      "title": "Doces Caseiros e Artes",
      "place_id": "ChIJRzcQpK64oQARO_B3nKhXM6c",
      "rating": 4.5,
      "reviews": 6,
      "type": "Doceria",
      "address": "R. do Chafariz, 26 - Centro, Tiradentes - MG, 36325-000, Brasil",
      "phone": "",
      "website": "",
      "hours": "Fechado ⋅ Abre às 09:00",
      "cidade_oficial": "Tiradentes, MG",
      "categoria_governo": "docerias",
      "data_extracao_oficial": "2025-07-29T06:04:26.560323",
      "auditoria_governo": "COMPLETA",
      "latitude": -21.1088898,
      "longitude": -44.177110299999995
    },
    {
      "position": 12,
      "title": "Chocolateria Puro Cacau",
      "place_id": "ChIJ30HFkay4oQARw4uHEpkLEVM",
      "rating": 4,
      "reviews": 186,
      "type": "Loja de chocolates",
      "address": "Largo Forras, 30 - Centro, Tiradentes - MG, 36325-000, Brasil",
      "phone": "+55 32 3355-1600",
      "website": "",
      "hours": "Fechado ⋅ Abre às 09:00",
      "cidade_oficial": "Tiradentes, MG",
      "categoria_governo": "docerias",
      "data_extracao_oficial": "2025-07-29T06:04:26.560323",
      "auditoria_governo": "COMPLETA",
      "latitude": -21.110639499999998,
      "longitude": -44.1740583
    },
    {
      "position": 14,
      "title": "Padaria Mister Pão",
      "place_id": "ChIJt6xfqFO_oQAR7XfOTnN1DTc",
      "rating": 4.2,
      "reviews": 122,
      "type": "Padaria",
      "address": "R. Francisco Pereira Morais, 93 - Tiradentes, MG, 36325-000, Brasil",
      "phone": "+55 32 3355-2416",
      "website": "",
      "hours": "Fechado ⋅ Abre às 07:00",
      "cidade_oficial": "Tiradentes, MG",
      "categoria_governo": "docerias",
      "data_extracao_oficial": "2025-07-29T06:04:26.560323",
      "auditoria_governo": "COMPLETA",
      "latitude": -21.1102751,
      "longitude": -44.1697352
    },
    {
      "position": 15,
      "title": "Mania de Doce",
      "place_id": "ChIJ6fUD6szHoQAR24-jI7bTYfE",
      "rating": 3,
      "reviews": 4,
      "type": "Confeitaria",
      "address": "R. Frei Veloso, 403 B - Pacu, Tiradentes - MG, 36325-000, Brasil",
      "phone": "+55 32 98817-0205",
      "website": "https://linktr.ee/confeitariamaniadedoce",
      "hours": "Fechado ⋅ Abre às 07:00",
      "cidade_oficial": "Tiradentes, MG",
      "categoria_governo": "docerias",
      "data_extracao_oficial": "2025-07-29T06:04:26.560323",
      "auditoria_governo": "COMPLETA",
      "latitude": -21.1122273,
      "longitude": -44.1891707
    },
    {
      "position": 16,
      "title": "Sabores da Alessandra ( Salgados, Doces e Bolos )",
      "place_id": "ChIJOyC4LSe_oQAR-3PaXwdaByo",
      "rating": 5,
      "reviews": 2,
      "type": "Confeitaria",
      "address": "R. Alvarenga Peixoto, 331 - Cuiabá, Tiradentes - MG, 36356-000, Brasil",
      "phone": "+55 32 99920-0214",
      "website": "http://bit.ly/3N0Mpaw",
      "hours": "Fechado ⋅ Abre às 07:00",
      "cidade_oficial": "Tiradentes, MG",
      "categoria_governo": "docerias",
      "data_extracao_oficial": "2025-07-29T06:04:26.560323",
      "auditoria_governo": "COMPLETA",
      "latitude": -21.1099647,
      "longitude": -44.1643202
    },
    {
      "position": 18,
      "title": "Padaria do Cuiabá",
      "place_id": "ChIJ7WwAMNu_oQAROIjKt_NxBkM",
      "rating": 4,
      "reviews": 24,
      "type": "Padaria",
      "address": "R. Alvarenga Peixoto, 299 - Cuiabá, Tiradentes - MG, 36325-000, Brasil",
      "phone": "+55 32 99937-6153",
      "website": "",
      "hours": "Aberto ⋅ Fecha às 18:00",
      "cidade_oficial": "Tiradentes, MG",
      "categoria_governo": "docerias",
      "data_extracao_oficial": "2025-07-29T06:04:26.560323",
      "auditoria_governo": "COMPLETA",
      "latitude": -21.1100852,
      "longitude": -44.164642699999995
    },
    {
      "position": 19,
      "title": "Picolé do Amado Tiradentes",
      "place_id": "ChIJPdZUp6y4oQAR5wvjnBg3cKU",
      "rating": 4.7,
      "reviews": 360,
      "type": "Sorveteria",
      "address": "R. dos Inconfidentes, 79 - Bela Vista, Tiradentes - MG, 36325-000, Brasil",
      "phone": "+55 32 99988-4899",
      "website": "http://www.picoledoamado.com.br/",
      "hours": "Fechado ⋅ Abre às 11:00",
      "cidade_oficial": "Tiradentes, MG",
      "categoria_governo": "docerias",
      "data_extracao_oficial": "2025-07-29T06:04:26.560323",
      "auditoria_governo": "COMPLETA",
      "latitude": -21.1109898,
      "longitude": -44.172972099999996
    },
    {
      "position": 20,
      "title": "Cacau Show - Chocolates",
      "place_id": "ChIJZQf6gzC5oQAR24qoELYYHJQ",
      "rating": 4.7,
      "reviews": 13,
      "type": "Loja de chocolates",
      "address": "R. dos Inconfidentes, 140 - Tiradentes, MG, 36325-000, Brasil",
      "phone": "+55 32 98426-0564",
      "website": "https://www.cacaushow.com.br/",
      "hours": "",
      "cidade_oficial": "Tiradentes, MG",
      "categoria_governo": "docerias",
      "data_extracao_oficial": "2025-07-29T06:04:26.560323",
      "auditoria_governo": "COMPLETA",
      "latitude": -21.11124,
      "longitude": -44.172526399999995
    },
    {
      "position": 1,
      "title": "Agência uai trip Original Trip Turismo de Experiência",
      "place_id": "ChIJacU_U1K_oQARpFWUDVxewlE",
      "rating": 4.8,
      "reviews": 134,
      "type": "Operador de turismo",
      "address": "atendimento agendados WhatsApp, R. Martins Paolucci, 90 - Centro, Tiradentes - MG, 36325-000, Brasil",
      "phone": "+55 32 98848-3283",
      "website": "https://www.instagram.com/uaitrip/",
      "hours": "",
      "cidade_oficial": "Tiradentes, MG",
      "categoria_governo": "agencias_turismo",
      "data_extracao_oficial": "2025-07-29T06:04:33.558716",
      "auditoria_governo": "COMPLETA",
      "latitude": -21.111888699999998,
      "longitude": -44.173626899999995
    },
    {
      "position": 2,
      "title": "Agencia de Turismo Estrada Real",
      "place_id": "ChIJle4falO_oQARHGTWh6Cwsdw",
      "rating": 4.5,
      "reviews": 207,
      "type": "Agência de viagens",
      "address": "R. dos Inconfidentes, 218 - Centro, Tiradentes - MG, 36325-000, Brasil",
      "phone": "+55 32 3355-1187",
      "website": "https://www.tiradentesestradareal.com.br/",
      "hours": "Fechado ⋅ Abre às 08:00",
      "cidade_oficial": "Tiradentes, MG",
      "categoria_governo": "agencias_turismo",
      "data_extracao_oficial": "2025-07-29T06:04:33.558716",
      "auditoria_governo": "COMPLETA",
      "latitude": -21.1112957,
      "longitude": -44.171794899999995
    },
    {
      "position": 3,
      "title": "Uai Sô Agencia de Turismo",
      "place_id": "ChIJ1ThyiFO_oQARfluCu_gvw0I",
      "rating": 4.3,
      "reviews": 143,
      "type": "Agência de turismo",
      "address": "R. dos Inconfidentes, N° 407 - Centro, Tiradentes - MG, 36325-000, Brasil",
      "phone": "+55 32 3355-2329",
      "website": "https://uaisoturismo.com/",
      "hours": "Fechado ⋅ Abre às 08:00",
      "cidade_oficial": "Tiradentes, MG",
      "categoria_governo": "agencias_turismo",
      "data_extracao_oficial": "2025-07-29T06:04:33.558716",
      "auditoria_governo": "COMPLETA",
      "latitude": -21.1111061,
      "longitude": -44.1700297
    },
    {
      "position": 4,
      "title": "Agência Trajjetus Receptivo",
      "place_id": "ChIJz4PnsK64oQAReNDX8SvIyp4",
      "rating": 4.9,
      "reviews": 11,
      "type": "Escritório da empresa",
      "address": "R. Jogo de Bola, 37 - Tiradentes, MG, 36325-000, Brasil",
      "phone": "+55 32 99979-9836",
      "website": "",
      "hours": "",
      "cidade_oficial": "Tiradentes, MG",
      "categoria_governo": "agencias_turismo",
      "data_extracao_oficial": "2025-07-29T06:04:33.558716",
      "auditoria_governo": "COMPLETA",
      "latitude": -21.1091058,
      "longitude": -44.1775866
    },
    {
      "position": 5,
      "title": "Walking Tour Becos de Tiradentes",
      "place_id": "ChIJ_x3RTqy5oQAR1DFe0MfFCrk",
      "rating": 4.9,
      "reviews": 187,
      "type": "Agência de turismo",
      "address": "R. Custódio Gomes, 13 - Centro, Tiradentes - MG, 36325-000, Brasil",
      "phone": "+55 32 98810-6628",
      "website": "https://tiradenteswalkingtour.com.br/",
      "hours": "Fechado ⋅ Abre às 09:00",
      "cidade_oficial": "Tiradentes, MG",
      "categoria_governo": "agencias_turismo",
      "data_extracao_oficial": "2025-07-29T06:04:33.558716",
      "auditoria_governo": "COMPLETA",
      "latitude": -21.1090177,
      "longitude": -44.175176099999995
    },
    {
      "position": 6,
      "title": "CL Transportes viagens , Turismos e eventos",
      "place_id": "ChIJrdtBfADBoQARdcHwX_AIuPI",
      "rating": 5,
      "reviews": 12,
      "type": "Agência de viagens a pontos turísticos",
      "address": "R. Ovídio de Abreu, 1123 - Tiradentes, MG, 36325-000, Brasil",
      "phone": "+55 32 99984-6298",
      "website": "https://www.instagram.com/cl_trasporte_viagens_e_evento?igsh=Mmo1N2xkMHl3cWZx",
      "hours": "Aberto 24 horas",
      "cidade_oficial": "Tiradentes, MG",
      "categoria_governo": "agencias_turismo",
      "data_extracao_oficial": "2025-07-29T06:04:33.558716",
      "auditoria_governo": "COMPLETA",
      "latitude": -21.122748899999998,
      "longitude": -44.1704205
    },
    {
      "position": 7,
      "title": "Mais Minas Turismo Receptivo",
      "place_id": "ChIJ4e3q72e5oQARqZEGPuf4wBU",
      "rating": 4,
      "reviews": 2,
      "type": "Agência de turismo",
      "address": "R. Santíssima Trindade, 16 - Tiradentes, MG, 36325-000, Brasil",
      "phone": "+55 31 99978-7787",
      "website": "https://guiadaestrada.com.br/listings/mais-minas-turismo-receptivo/",
      "hours": "Aberto 24 horas",
      "cidade_oficial": "Tiradentes, MG",
      "categoria_governo": "agencias_turismo",
      "data_extracao_oficial": "2025-07-29T06:04:33.558716",
      "auditoria_governo": "COMPLETA",
      "latitude": -21.109799799999998,
      "longitude": -44.1781722
    },
    {
      "position": 8,
      "title": "Caminhos de Trilhas Viva Minas",
      "place_id": "ChIJNfQJQVK_oQAReNtThUfLZnE",
      "rating": 4.7,
      "reviews": 24,
      "type": "Agência de viagens",
      "address": "R. Custódio Gomes, 13 - Centro, Tiradentes - MG, 36325-000, Brasil",
      "phone": "+55 32 99967-9665",
      "website": "",
      "hours": "Fechado ⋅ Abre às 08:00",
      "cidade_oficial": "Tiradentes, MG",
      "categoria_governo": "agencias_turismo",
      "data_extracao_oficial": "2025-07-29T06:04:33.558716",
      "auditoria_governo": "COMPLETA",
      "latitude": -21.108994499999998,
      "longitude": -44.1751386
    },
    {
      "position": 9,
      "title": "O que fazer em Tiradentes?",
      "place_id": "ChIJ5WzMJfW5oQARa8zce4A2B4M",
      "rating": 5,
      "reviews": 1,
      "type": "Agência de turismo",
      "address": "R. Custódio Gomes, 13 - Centro, Tiradentes - MG, 36325-000, Brasil",
      "phone": "+55 32 98810-6628",
      "website": "http://oquefazeremtiradentes.com.br/",
      "hours": "",
      "cidade_oficial": "Tiradentes, MG",
      "categoria_governo": "agencias_turismo",
      "data_extracao_oficial": "2025-07-29T06:04:33.558716",
      "auditoria_governo": "COMPLETA",
      "latitude": -21.1089789,
      "longitude": -44.1751869
    },
    {
      "position": 10,
      "title": "HLERA OFF ROAD",
      "place_id": "ChIJj9S4FES_oQARvvrJjeYQwDs",
      "rating": 4.4,
      "reviews": 217,
      "type": "Agência de turismo",
      "address": "R. Alvarenga Peixoto, 990 - Tiradentes, MG, 36325-000, Brasil",
      "phone": "+55 32 99822-0492",
      "website": "",
      "hours": "Fechado ⋅ Abre qua. às 09:00",
      "cidade_oficial": "Tiradentes, MG",
      "categoria_governo": "agencias_turismo",
      "data_extracao_oficial": "2025-07-29T06:04:33.558716",
      "auditoria_governo": "COMPLETA",
      "latitude": -21.106295199999998,
      "longitude": -44.156473299999995
    },
    {
      "position": 11,
      "title": "Dakar Loc",
      "place_id": "ChIJyfAHvx3BoQAR1ljs2X73bmM",
      "rating": 4.7,
      "reviews": 58,
      "type": "Agência de viagens",
      "address": "Av. Gov. Israel Pinheiro, 18 - Várzea, Tiradentes - MG, 36325-000, Brasil",
      "phone": "+55 32 98423-6513",
      "website": "",
      "hours": "Fechado ⋅ Abre qui. às 08:30",
      "cidade_oficial": "Tiradentes, MG",
      "categoria_governo": "agencias_turismo",
      "data_extracao_oficial": "2025-07-29T06:04:33.558716",
      "auditoria_governo": "COMPLETA",
      "latitude": -21.1181566,
      "longitude": -44.1691808
    },
    {
      "position": 12,
      "title": "Operadora Tiradentesbrasil - Ecoturismo",
      "place_id": "ChIJ-WtMyqy4oQARvr2MKqR8d1Q",
      "rating": 5,
      "reviews": 1,
      "type": "Agência de viagens",
      "address": "R. Henrique Diniz, 119 - Centro, Tiradentes - MG, 36325-000, Brasil",
      "phone": "+55 32 3355-2477",
      "website": "",
      "hours": "Fechado ⋅ Abre às 09:00",
      "cidade_oficial": "Tiradentes, MG",
      "categoria_governo": "agencias_turismo",
      "data_extracao_oficial": "2025-07-29T06:04:33.558716",
      "auditoria_governo": "COMPLETA",
      "latitude": -21.111217699999997,
      "longitude": -44.1729875
    },
    {
      "position": 13,
      "title": "Charretes Turísticas De Tiradentes",
      "place_id": "ChIJyXdjmqy4oQAR6UEwt9goIOk",
      "rating": 2.3,
      "reviews": 35,
      "type": "Operador de turismo",
      "address": "Tiradentes, MG, 36325-000, Brasil",
      "phone": "+55 31 98444-1978",
      "website": "",
      "hours": "",
      "cidade_oficial": "Tiradentes, MG",
      "categoria_governo": "agencias_turismo",
      "data_extracao_oficial": "2025-07-29T06:04:33.558716",
      "auditoria_governo": "COMPLETA",
      "latitude": -21.1103204,
      "longitude": -44.173642199999996
    },
    {
      "position": 14,
      "title": "Andantes da Estrada Real",
      "place_id": "ChIJQwrVfQi_oQARicU21M9iTYc",
      "rating": 5,
      "reviews": 50,
      "type": "Serviço de passeio a cavalo",
      "address": "Rua Vereador José Inácio Veloso, 1455 - Cuiaba, Tiradentes - MG, 36325-000, Brasil",
      "phone": "+55 32 99903-8242",
      "website": "https://www.instagram.com/andantesdaestradareal/",
      "hours": "Aberto 24 horas",
      "cidade_oficial": "Tiradentes, MG",
      "categoria_governo": "agencias_turismo",
      "data_extracao_oficial": "2025-07-29T06:04:33.558716",
      "auditoria_governo": "COMPLETA",
      "latitude": -21.112072299999998,
      "longitude": -44.143111
    },
    {
      "position": 15,
      "title": "Guia Turista Tiradentes",
      "place_id": "ChIJ4Tfnl1G_oQARTwXWPVGYQDY",
      "rating": "",
      "reviews": 0,
      "type": "Agência de viagens",
      "address": "R. Alvarenga Peixoto, 89 - Tiradentes, MG, 36325-000, Brasil",
      "phone": "+55 32 3355-1530",
      "website": "",
      "hours": "",
      "cidade_oficial": "Tiradentes, MG",
      "categoria_governo": "agencias_turismo",
      "data_extracao_oficial": "2025-07-29T06:04:33.558716",
      "auditoria_governo": "COMPLETA",
      "latitude": -21.1102152,
      "longitude": -44.1661389
    },
    {
      "position": 16,
      "title": "Guia Passeios Ecológicos",
      "place_id": "ChIJexDMSlC_oQARUdT_RXzhWY4",
      "rating": 5,
      "reviews": 1,
      "type": "Operador de turismo",
      "address": "R. Alvarenga Peixoto, 09 - cuiaba, Tiradentes - MG, 36325-000, Brasil",
      "phone": "+55 32 99940-8234",
      "website": "",
      "hours": "Fechado ⋅ Abre sáb. às 07:00",
      "cidade_oficial": "Tiradentes, MG",
      "categoria_governo": "agencias_turismo",
      "data_extracao_oficial": "2025-07-29T06:04:33.558716",
      "auditoria_governo": "COMPLETA",
      "latitude": -21.1102272,
      "longitude": -44.1649363
    },
    {
      "position": 17,
      "title": "City Tour Caminhos de Tiradentes",
      "place_id": "ChIJRUgmOAC5oQARN3RaDWqH9zk",
      "rating": 5,
      "reviews": 1,
      "type": "Trilha de Caminhada",
      "address": "R. Min. Gabriel Passos - Tiradentes, MG, 36325-000, Brasil",
      "phone": "+55 32 99965-8707",
      "website": "http://caminhosdetiradentes.com.br/",
      "hours": "",
      "cidade_oficial": "Tiradentes, MG",
      "categoria_governo": "agencias_turismo",
      "data_extracao_oficial": "2025-07-29T06:04:33.558716",
      "auditoria_governo": "COMPLETA",
      "latitude": -21.110261599999998,
      "longitude": -44.1739165
    },
    {
      "position": 18,
      "title": "Jornal Tiradentes Gerais",
      "place_id": "ChIJ60_KRVK_oQARDOjq6Ac6fqs",
      "rating": 4.5,
      "reviews": 51,
      "type": "Atração turística",
      "address": "R. Francisco Pereira Morais, 220 - Tiradentes, MG, 36325-000, Brasil",
      "phone": "+55 32 98848-3283",
      "website": "",
      "hours": "Fechado ⋅ Abre às 09:00",
      "cidade_oficial": "Tiradentes, MG",
      "categoria_governo": "agencias_turismo",
      "data_extracao_oficial": "2025-07-29T06:04:33.558716",
      "auditoria_governo": "COMPLETA",
      "latitude": -21.1094857,
      "longitude": -44.1688581
    },
    {
      "position": 19,
      "title": "Agad Viagens",
      "place_id": "ChIJ_zudLNm_oQARSCxzW9FaMt4",
      "rating": "",
      "reviews": 0,
      "type": "Agência de turismo",
      "address": "R. Padroeiro Santo Antônio, 146 - Tiradentes, MG, 36325-000, Brasil",
      "phone": "+55 32 99863-2525",
      "website": "",
      "hours": "Fechado ⋅ Abre às 09:00",
      "cidade_oficial": "Tiradentes, MG",
      "categoria_governo": "agencias_turismo",
      "data_extracao_oficial": "2025-07-29T06:04:33.558716",
      "auditoria_governo": "COMPLETA",
      "latitude": -21.1065176,
      "longitude": -44.1710674
    },
    {
      "position": 20,
      "title": "Trilha do Carteiro",
      "place_id": "ChIJL9TLtzG_oQAROaWgTxmptNQ",
      "rating": 4.7,
      "reviews": 272,
      "type": "Trilha de Caminhada",
      "address": "Tiradentes, MG, 36325-000, Brasil",
      "phone": "",
      "website": "",
      "hours": "",
      "cidade_oficial": "Tiradentes, MG",
      "categoria_governo": "agencias_turismo",
      "data_extracao_oficial": "2025-07-29T06:04:33.558716",
      "auditoria_governo": "COMPLETA",
      "latitude": -21.1004295,
      "longitude": -44.1686597
    },
    {
      "position": 10,
      "title": "Café Caramello Tiradentes Cafeteria",
      "place_id": "ChIJqarqFay4oQARNkEXbzLI5Ak",
      "rating": 4.8,
      "reviews": 133,
      "type": "Café",
      "address": "R. Min. Gabriel Passos, 238 - loja A - Centro, Tiradentes - MG, 36325-000, Brasil",
      "phone": "+55 32 98702-4778",
      "website": "http://www.cafecaramello.com.br/",
      "hours": "Fechado ⋅ Abre qui. às 09:00",
      "cidade_oficial": "Tiradentes, MG",
      "categoria_governo": "confeitarias",
      "data_extracao_oficial": "2025-07-29T06:04:35.150152",
      "auditoria_governo": "COMPLETA",
      "latitude": -21.1087383,
      "longitude": -44.1758655
    },
    {
      "position": 11,
      "title": "Fábrica de pães oliveira",
      "place_id": "ChIJb6tOS2u_oQARq6YSvp4Bv4M",
      "rating": 4.6,
      "reviews": 16,
      "type": "Padaria",
      "address": "R. Padroeiro Santo Antônio, 216 - Centro, Tiradentes - MG, 36325-000, Brasil",
      "phone": "+55 32 98468-7966",
      "website": "",
      "hours": "Aberto ⋅ Fecha às 19:00",
      "cidade_oficial": "Tiradentes, MG",
      "categoria_governo": "confeitarias",
      "data_extracao_oficial": "2025-07-29T06:04:35.150152",
      "auditoria_governo": "COMPLETA",
      "latitude": -21.1062734,
      "longitude": -44.171457499999995
    },
    {
      "position": 13,
      "title": "Padaria e lanchonete Mappa dos Sabores",
      "place_id": "ChIJ9w50XZK_oQARWNJ0-08Ma-s",
      "rating": 3.9,
      "reviews": 81,
      "type": "Lanchonete",
      "address": "R. dos Inconfidentes, 355 - Centro, Tiradentes - MG, 36325-000, Brasil",
      "phone": "+55 32 99969-0227",
      "website": "",
      "hours": "Fechado ⋅ Abre às 07:00",
      "cidade_oficial": "Tiradentes, MG",
      "categoria_governo": "confeitarias",
      "data_extracao_oficial": "2025-07-29T06:04:35.150152",
      "auditoria_governo": "COMPLETA",
      "latitude": -21.1110147,
      "longitude": -44.1703902
    },
    {
      "position": 14,
      "title": "Levi Torteria",
      "place_id": "ChIJi3ktMOa5oQARFa9WNQXnPlw",
      "rating": 5,
      "reviews": 12,
      "type": "Loja de tortas",
      "address": "rua alvarenga peixoto - cuiabá, Tiradentes - MG, 36325-000, Brasil",
      "phone": "+55 32 99860-4335",
      "website": "https://www.instagram.com/levi_torteria/",
      "hours": "Fechado ⋅ Abre às 09:00",
      "cidade_oficial": "Tiradentes, MG",
      "categoria_governo": "confeitarias",
      "data_extracao_oficial": "2025-07-29T06:04:35.150152",
      "auditoria_governo": "COMPLETA",
      "latitude": -21.1101985,
      "longitude": -44.173528
    },
    {
      "position": 3,
      "title": "Cafeteria Tiradentes - Café Vertentes",
      "place_id": "ChIJk5InJFS5oQARpwuWiNA-0Dk",
      "rating": 4.8,
      "reviews": 119,
      "type": "Cafeteria",
      "address": "R. Min. Gabriel Passos, 262 - Centro, Tiradentes - MG, 36325-000, Brasil",
      "phone": "+55 32 99861-6614",
      "website": "",
      "hours": "Fechado ⋅ Abre às 09:30",
      "cidade_oficial": "Tiradentes, MG",
      "categoria_governo": "cafeterias",
      "data_extracao_oficial": "2025-07-29T06:04:36.879981",
      "auditoria_governo": "COMPLETA",
      "latitude": -21.108694999999997,
      "longitude": -44.176117
    },
    {
      "position": 5,
      "title": "Quitanda mineira",
      "place_id": "ChIJR_x2k-i_oQARmQl9k2InnF4",
      "rating": 4.8,
      "reviews": 199,
      "type": "Cafeteria",
      "address": "R. Francisco Pereira Morais, 65 - centro, Tiradentes - MG, 36325-000, Brasil",
      "phone": "+55 32 98481-1804",
      "website": "",
      "hours": "Fechado ⋅ Abre qua. às 08:00",
      "cidade_oficial": "Tiradentes, MG",
      "categoria_governo": "cafeterias",
      "data_extracao_oficial": "2025-07-29T06:04:36.879981",
      "auditoria_governo": "COMPLETA",
      "latitude": -21.1109287,
      "longitude": -44.1699351
    },
    {
      "position": 6,
      "title": "Casa do Sino",
      "place_id": "ChIJc_0waay4oQARfn9TCvrr3Vs",
      "rating": 4.6,
      "reviews": 231,
      "type": "Café",
      "address": "R. Custódio Gomes, 39 - Tiradentes, MG, 36325-000, Brasil",
      "phone": "+55 32 98820-0294",
      "website": "",
      "hours": "Fechado ⋅ Abre às 10:00",
      "cidade_oficial": "Tiradentes, MG",
      "categoria_governo": "cafeterias",
      "data_extracao_oficial": "2025-07-29T06:04:36.879981",
      "auditoria_governo": "COMPLETA",
      "latitude": -21.1092676,
      "longitude": -44.175060099999996
    },
    {
      "position": 7,
      "title": "Porão Tiradentes",
      "place_id": "ChIJZ8OQil25oQARO9W_9utqpJE",
      "rating": 4.9,
      "reviews": 16,
      "type": "Café",
      "address": "R. da Camara, 8b - Tiradentes, MG, 36325-000, Brasil",
      "phone": "+55 32 98842-3920",
      "website": "",
      "hours": "Fechado ⋅ Abre qua. às 09:00",
      "cidade_oficial": "Tiradentes, MG",
      "categoria_governo": "cafeterias",
      "data_extracao_oficial": "2025-07-29T06:04:36.879981",
      "auditoria_governo": "COMPLETA",
      "latitude": -21.1098881,
      "longitude": -44.177974999999996
    },
    {
      "position": 8,
      "title": "Cafe Do Museu",
      "place_id": "ChIJ_Vz_6dO5oQARxH-qjklaxe0",
      "rating": 5,
      "reviews": 11,
      "type": "Café",
      "address": "R. da Cadeia - Tiradentes, MG, 36325-000, Brasil",
      "phone": "+55 32 98493-1960",
      "website": "",
      "hours": "Fechado ⋅ Abre qua. às 10:00",
      "cidade_oficial": "Tiradentes, MG",
      "categoria_governo": "cafeterias",
      "data_extracao_oficial": "2025-07-29T06:04:36.879981",
      "auditoria_governo": "COMPLETA",
      "latitude": -21.109374799999998,
      "longitude": -44.1764813
    },
    {
      "position": 10,
      "title": "Tiradentes",
      "place_id": "ChIJw-1PLAC5oQAR4Act7f3bTYg",
      "rating": 5,
      "reviews": 6,
      "type": "Cafeteria",
      "address": "MG, 36325-000, Brasil",
      "phone": "",
      "website": "",
      "hours": "",
      "cidade_oficial": "Tiradentes, MG",
      "categoria_governo": "cafeterias",
      "data_extracao_oficial": "2025-07-29T06:04:36.879981",
      "auditoria_governo": "COMPLETA",
      "latitude": -21.110255,
      "longitude": -44.1735336
    },
    {
      "position": 11,
      "title": "Vó Maria Artesanato",
      "place_id": "ChIJx8Tregy5oQARCX6nERkDhoE",
      "rating": 4.6,
      "reviews": 11,
      "type": "Café",
      "address": "R. Min. Gabriel Passos, 160 - Centro, Tiradentes - MG, 36325-000, Brasil",
      "phone": "",
      "website": "",
      "hours": "",
      "cidade_oficial": "Tiradentes, MG",
      "categoria_governo": "cafeterias",
      "data_extracao_oficial": "2025-07-29T06:04:36.879981",
      "auditoria_governo": "COMPLETA",
      "latitude": -21.1094278,
      "longitude": -44.175260699999995
    },
    {
      "position": 12,
      "title": "Mazuma Mineira Bar & Coquetelaria",
      "place_id": "ChIJA9NNoje5oQARSaMeDDr6CgM",
      "rating": 4.9,
      "reviews": 36,
      "type": "Café",
      "address": "R. Direita, 159 - CENTRO HISTORICO, Tiradentes - MG, 36325-000, Brasil",
      "phone": "+55 32 98441-5582",
      "website": "http://www.instagram.com.br/mazumamineirabar",
      "hours": "Fechado ⋅ Abre qua. às 09:00",
      "cidade_oficial": "Tiradentes, MG",
      "categoria_governo": "cafeterias",
      "data_extracao_oficial": "2025-07-29T06:04:36.879981",
      "auditoria_governo": "COMPLETA",
      "latitude": -21.109876099999997,
      "longitude": -44.175947099999995
    },
    {
      "position": 13,
      "title": "Café da Praça",
      "place_id": "ChIJ0W45A_G5oQARyt5U27OZNp8",
      "rating": 5,
      "reviews": 3,
      "type": "Cafeteria",
      "address": "R. Resende Costa, 30 - Tiradentes, MG, 36325-000, Brasil",
      "phone": "",
      "website": "",
      "hours": "",
      "cidade_oficial": "Tiradentes, MG",
      "categoria_governo": "cafeterias",
      "data_extracao_oficial": "2025-07-29T06:04:36.879981",
      "auditoria_governo": "COMPLETA",
      "latitude": -21.1106359,
      "longitude": -44.174005199999996
    },
    {
      "position": 15,
      "title": "Pousada Cama e Café Tiradentes MG",
      "place_id": "ChIJhX8571K_oQARTTy0gp7GuhQ",
      "rating": 4.9,
      "reviews": 142,
      "type": "Cama e café",
      "address": "R. Manoel Morais Batista Júnior, 26 - Parque das Abelhas, Tiradentes - MG, 36325-000, Brasil",
      "phone": "+55 32 98876-1079",
      "website": "http://camacafetiradentes.com.br/",
      "hours": "",
      "cidade_oficial": "Tiradentes, MG",
      "categoria_governo": "cafeterias",
      "data_extracao_oficial": "2025-07-29T06:04:36.879981",
      "auditoria_governo": "COMPLETA",
      "latitude": -21.1088679,
      "longitude": -44.1704951
    },
    {
      "position": 17,
      "title": "Jardins de Maria - Flora, Café e Decor",
      "place_id": "ChIJv_-vfOG5oQARXIud6iGireE",
      "rating": 4.9,
      "reviews": 17,
      "type": "Cafeteria",
      "address": "R. José Vicente de Almeida, 91 - São Pedro (Colônia do Marçal), Tiradentes - MG, 36325-000, Brasil",
      "phone": "+55 32 99929-7332",
      "website": "",
      "hours": "Fechado ⋅ Abre sáb. às 10:00",
      "cidade_oficial": "Tiradentes, MG",
      "categoria_governo": "cafeterias",
      "data_extracao_oficial": "2025-07-29T06:04:36.879981",
      "auditoria_governo": "COMPLETA",
      "latitude": -21.0885431,
      "longitude": -44.2015573
    },
    {
      "position": 18,
      "title": "Empório Vó Mercês",
      "place_id": "ChIJiWaLYwC5oQARw16R3fTtRvg",
      "rating": 5,
      "reviews": 4,
      "type": "Cafeteria",
      "address": "R. Custódio Gomes, 13 - Tiradentes, MG, 36325-000, Brasil",
      "phone": "",
      "website": "",
      "hours": "Fechado ⋅ Abre qua. às 10:00",
      "cidade_oficial": "Tiradentes, MG",
      "categoria_governo": "cafeterias",
      "data_extracao_oficial": "2025-07-29T06:04:36.879981",
      "auditoria_governo": "COMPLETA",
      "latitude": -21.109077499999998,
      "longitude": -44.1751942
    },
    {
      "position": 19,
      "title": "L.D Delícia de Sabor",
      "place_id": "ChIJ_5XdbADBoQARMwPqA35bT-k",
      "rating": 5,
      "reviews": 1,
      "type": "Cafeteria",
      "address": "R. Cap. Chaves Miranda - Tiradentes, MG, 36325-000, Brasil",
      "phone": "",
      "website": "",
      "hours": "",
      "cidade_oficial": "Tiradentes, MG",
      "categoria_governo": "cafeterias",
      "data_extracao_oficial": "2025-07-29T06:04:36.879981",
      "auditoria_governo": "COMPLETA",
      "latitude": -21.114686499999998,
      "longitude": -44.1672035
    },
    {
      "position": 20,
      "title": "Chocolate do Rei",
      "place_id": "ChIJn-ZbTwC5oQARE1fu6bdp3n0",
      "rating": 4.8,
      "reviews": 4,
      "type": "Cafeteria",
      "address": "R. da Camara, 3 - Tiradentes, MG, 36325-000, Brasil",
      "phone": "",
      "website": "",
      "hours": "",
      "cidade_oficial": "Tiradentes, MG",
      "categoria_governo": "cafeterias",
      "data_extracao_oficial": "2025-07-29T06:04:36.879981",
      "auditoria_governo": "COMPLETA",
      "latitude": -21.1099538,
      "longitude": -44.178075299999996
    },
    {
      "position": 1,
      "title": "HAMBURGUER DO ZÉ - TIRADENTES",
      "place_id": "ChIJdz1pXqu4oQARioco2hC8g1A",
      "rating": 4.5,
      "reviews": 941,
      "type": "Hamburgueria",
      "address": "Whatsapp & CEL: (82, Rua: São Francisco de Paula, 23 - Centro Histórico, Tiradentes - MG, 36325-000, Brasil",
      "phone": "+55 32 98707-6601",
      "website": "https://www.facebook.com/hamburguerdoze.tiradentes.7",
      "hours": "Fechado ⋅ Abre às 18:00",
      "cidade_oficial": "Tiradentes, MG",
      "categoria_governo": "hamburguerias",
      "data_extracao_oficial": "2025-07-29T06:04:41.982869",
      "auditoria_governo": "COMPLETA",
      "latitude": -21.109791299999998,
      "longitude": -44.1736024
    },
    {
      "position": 2,
      "title": "Uai burguer",
      "place_id": "ChIJcxSyDmO_oQARwG0UpBx2DEc",
      "rating": 4.8,
      "reviews": 166,
      "type": "Hamburgueria",
      "address": "R. dos Inconfidentes, 320 - Tiradentes, MG, 36325-000, Brasil",
      "phone": "+55 32 99931-5231",
      "website": "",
      "hours": "Fechado ⋅ Abre às 19:00",
      "cidade_oficial": "Tiradentes, MG",
      "categoria_governo": "hamburguerias",
      "data_extracao_oficial": "2025-07-29T06:04:41.982869",
      "auditoria_governo": "COMPLETA",
      "latitude": -21.1113184,
      "longitude": -44.170857999999996
    },
    {
      "position": 3,
      "title": "Rango's Burger",
      "place_id": "ChIJI_UjaNm_oQARvS6n6W1QZxs",
      "rating": 4.9,
      "reviews": 153,
      "type": "Hamburgueria",
      "address": "R. dos Inconfidentes, 249 - Centro, Tiradentes - MG, 36325-000, Brasil",
      "phone": "+55 32 99951-4444",
      "website": "",
      "hours": "Fechado ⋅ Abre qua. às 11:00",
      "cidade_oficial": "Tiradentes, MG",
      "categoria_governo": "hamburguerias",
      "data_extracao_oficial": "2025-07-29T06:04:41.982869",
      "auditoria_governo": "COMPLETA",
      "latitude": -21.1111103,
      "longitude": -44.1713465
    },
    {
      "position": 4,
      "title": "America Pizza e Burgers",
      "place_id": "ChIJ362Lzfi5oQAR0Yus4ZePQps",
      "rating": 4.6,
      "reviews": 376,
      "type": "Restaurante",
      "address": "R. Frederico Ozanan, 327 - Centro, Tiradentes - MG, 36325-000, Brasil",
      "phone": "+55 32 99979-9320",
      "website": "",
      "hours": "Fechado ⋅ Abre às 19:00",
      "cidade_oficial": "Tiradentes, MG",
      "categoria_governo": "hamburguerias",
      "data_extracao_oficial": "2025-07-29T06:04:41.982869",
      "auditoria_governo": "COMPLETA",
      "latitude": -21.108395299999998,
      "longitude": -44.176865
    },
    {
      "position": 5,
      "title": "Sabores da Inconfidencia",
      "place_id": "ChIJ935YYs25oQAR1tG_tyG4mPg",
      "rating": 5,
      "reviews": 19,
      "type": "Hamburgueria",
      "address": "R. dos Inconfidentes, 60 - Tiradentes, MG, 36325-000, Brasil",
      "phone": "+55 32 99944-0192",
      "website": "",
      "hours": "Fechado ⋅ Abre qua. às 18:00",
      "cidade_oficial": "Tiradentes, MG",
      "categoria_governo": "hamburguerias",
      "data_extracao_oficial": "2025-07-29T06:04:41.982869",
      "auditoria_governo": "COMPLETA",
      "latitude": -21.1117706,
      "longitude": -44.1735931
    },
    {
      "position": 8,
      "title": "Restaurante Habanero",
      "place_id": "ChIJJ5KxpQ25oQARs9Cm-WTsYAw",
      "rating": 4.7,
      "reviews": 274,
      "type": "Restaurante mexicano",
      "address": "R. dos Inconfidentes, 109 - Centro Histórico, Tiradentes - MG, 36325-000, Brasil",
      "phone": "+55 31 98874-2001",
      "website": "https://conectetiradentes.com.br/atrativos/restaurante-habanero-1672139511892x146304780588810240",
      "hours": "Fechado ⋅ Abre qua. às 18:00",
      "cidade_oficial": "Tiradentes, MG",
      "categoria_governo": "hamburguerias",
      "data_extracao_oficial": "2025-07-29T06:04:41.982869",
      "auditoria_governo": "COMPLETA",
      "latitude": -21.1111106,
      "longitude": -44.1726916
    },
    {
      "position": 9,
      "title": "Planeta lanches",
      "place_id": "ChIJM5brPBm_oQAR9Tu94SQcaII",
      "rating": 4.6,
      "reviews": 102,
      "type": "Lanchonete",
      "address": "Ao lado da Pousada da Sirlei, Praça Berço da Liberdade, 08 - Centro, Tiradentes - MG, 36325-000, Brasil",
      "phone": "+55 32 99925-3760",
      "website": "",
      "hours": "Fechado ⋅ Abre às 18:00",
      "cidade_oficial": "Tiradentes, MG",
      "categoria_governo": "hamburguerias",
      "data_extracao_oficial": "2025-07-29T06:04:41.982869",
      "auditoria_governo": "COMPLETA",
      "latitude": -21.1122691,
      "longitude": -44.169053399999996
    },
    {
      "position": 10,
      "title": "Montanha's Restaurante",
      "place_id": "ChIJf_giwdu5oQAR-vCDRmjAo2U",
      "rating": 4.8,
      "reviews": 441,
      "type": "Restaurante",
      "address": "R. Min. Gabriel Passos, 300 - Centro, Tiradentes - MG, 36325-000, Brasil",
      "phone": "+55 32 98837-7062",
      "website": "",
      "hours": "Fechado ⋅ Abre às 11:00",
      "cidade_oficial": "Tiradentes, MG",
      "categoria_governo": "hamburguerias",
      "data_extracao_oficial": "2025-07-29T06:04:41.982869",
      "auditoria_governo": "COMPLETA",
      "latitude": -21.108428,
      "longitude": -44.176494999999996
    },
    {
      "position": 11,
      "title": "Quintal Tiradentes",
      "place_id": "ChIJ0bUIVvq5oQARUJYzXL7_Qds",
      "rating": 4.7,
      "reviews": 43,
      "type": "Restaurante brasileiro",
      "address": "R. Padroeiro Santo Antônio, 253 - Cascalho, Tiradentes - MG, 36325-000, Brasil",
      "phone": "+55 32 99869-8651",
      "website": "",
      "hours": "Fechado ⋅ Abre às 12:00",
      "cidade_oficial": "Tiradentes, MG",
      "categoria_governo": "hamburguerias",
      "data_extracao_oficial": "2025-07-29T06:04:41.982869",
      "auditoria_governo": "COMPLETA",
      "latitude": -21.1078875,
      "longitude": -44.1701955
    },
    {
      "position": 12,
      "title": "Boulevard Tiradentes",
      "place_id": "ChIJWzZBDpS_oQARHEQLSVX-L4A",
      "rating": 4.9,
      "reviews": 679,
      "type": "Restaurante",
      "address": "R. dos Inconfidentes, 217 - Tiradentes, MG, 36325-000, Brasil",
      "phone": "+55 37 98831-0250",
      "website": "",
      "hours": "Fechado ⋅ Abre às 11:00",
      "cidade_oficial": "Tiradentes, MG",
      "categoria_governo": "hamburguerias",
      "data_extracao_oficial": "2025-07-29T06:04:41.982869",
      "auditoria_governo": "COMPLETA",
      "latitude": -21.1112015,
      "longitude": -44.1718146
    },
    {
      "position": 13,
      "title": "Templário, Restaurante E Choperia",
      "place_id": "ChIJGechlKy4oQARac-n00zHCpI",
      "rating": 4.3,
      "reviews": 1764,
      "type": "Restaurante",
      "address": "R. Silvio Vasconcelos, 115-137 - Tiradentes, MG, 36325-000, Brasil",
      "phone": "",
      "website": "https://templario.taplink.ws/",
      "hours": "Fechado ⋅ Abre às 11:00",
      "cidade_oficial": "Tiradentes, MG",
      "categoria_governo": "hamburguerias",
      "data_extracao_oficial": "2025-07-29T06:04:41.982869",
      "auditoria_governo": "COMPLETA",
      "latitude": -21.110071299999998,
      "longitude": -44.1734893
    },
    {
      "position": 14,
      "title": "SpaceBurguer",
      "place_id": "ChIJe3tAJzy_oQARKcDLY_JLXyU",
      "rating": 3.1,
      "reviews": 8,
      "type": "Hamburgueria",
      "address": "R. Padroeiro Santo Antônio, 158 - Tiradentes, MG, 36325-000, Brasil",
      "phone": "+55 32 99953-7352",
      "website": "https://www.instagram.com/spaceburguer_23?igsh=cDJlMmM5c2R0dTNo&utm_source=qr",
      "hours": "Fechado ⋅ Abre às 19:00",
      "cidade_oficial": "Tiradentes, MG",
      "categoria_governo": "hamburguerias",
      "data_extracao_oficial": "2025-07-29T06:04:41.982869",
      "auditoria_governo": "COMPLETA",
      "latitude": -21.106434999999998,
      "longitude": -44.171127399999996
    },
    {
      "position": 15,
      "title": "Pacco & Bacco",
      "place_id": "ChIJw2FpBqy4oQARWfnxzYpJqSs",
      "rating": 4.6,
      "reviews": 1041,
      "type": "Restaurante",
      "address": "R. Direita, 166 - Tiradentes, MG, 36325-000, Brasil",
      "phone": "+55 32 3355-1136",
      "website": "http://paccobacco.com.br/",
      "hours": "Fechado ⋅ Abre às 19:00",
      "cidade_oficial": "Tiradentes, MG",
      "categoria_governo": "hamburguerias",
      "data_extracao_oficial": "2025-07-29T06:04:41.982869",
      "auditoria_governo": "COMPLETA",
      "latitude": -21.109770899999997,
      "longitude": -44.176272
    },
    {
      "position": 16,
      "title": "Nossa Osteria Cucina Ítalo Brasileira Tiradentes",
      "place_id": "ChIJ_XhJLJm5oQAR4zMFwB4uivs",
      "rating": 4.8,
      "reviews": 23,
      "type": "Restaurante italiano",
      "address": "R. Francisco Cândido Barbosa, 156 - Tiradentes, MG, 36325-000, Brasil",
      "phone": "+55 32 99810-8407",
      "website": "https://www.nossaosteria.com.br/",
      "hours": "Fechado ⋅ Abre às 12:00",
      "cidade_oficial": "Tiradentes, MG",
      "categoria_governo": "hamburguerias",
      "data_extracao_oficial": "2025-07-29T06:04:41.982869",
      "auditoria_governo": "COMPLETA",
      "latitude": -21.1056728,
      "longitude": -44.175176099999995
    },
    {
      "position": 18,
      "title": "Virada’s do Largo- Restaurante da Beth",
      "place_id": "ChIJp8HzibK4oQARcPrAk2bK_s4",
      "rating": 4.5,
      "reviews": 1163,
      "type": "Restaurante Mineiro",
      "address": "R. do Moinho, 11 - Prainha, Tiradentes - MG, 36325-000, Brasil",
      "phone": "+55 32 99129-8181",
      "website": "http://www.viradasdolargo.com.br/",
      "hours": "Fechado ⋅ Abre às 12:00",
      "cidade_oficial": "Tiradentes, MG",
      "categoria_governo": "hamburguerias",
      "data_extracao_oficial": "2025-07-29T06:04:41.982869",
      "auditoria_governo": "COMPLETA",
      "latitude": -21.105554899999998,
      "longitude": -44.1746127
    },
    {
      "position": 19,
      "title": "Mandalun Restaurante E Lanchonete",
      "place_id": "ChIJjzOJiKy4oQARoUz9uBOj22Y",
      "rating": 3.7,
      "reviews": 425,
      "type": "Restaurante",
      "address": "R. Min. Gabriel Passos, 10 - Tiradentes, MG, 36325-000, Brasil",
      "phone": "+55 32 3355-2176",
      "website": "",
      "hours": "Fechado ⋅ Abre às 10:00",
      "cidade_oficial": "Tiradentes, MG",
      "categoria_governo": "hamburguerias",
      "data_extracao_oficial": "2025-07-29T06:04:41.982869",
      "auditoria_governo": "COMPLETA",
      "latitude": -21.1100086,
      "longitude": -44.174320099999996
    },
    {
      "position": 20,
      "title": "Uaiburguer",
      "place_id": "ChIJVbQZfgC_oQAR0LqJIbrF7Gk",
      "rating": "",
      "reviews": 0,
      "type": "Hamburgueria",
      "address": "R. Alvarenga Peixoto, 683 - Tiradentes, MG, 36325-000, Brasil",
      "phone": "",
      "website": "",
      "hours": "",
      "cidade_oficial": "Tiradentes, MG",
      "categoria_governo": "hamburguerias",
      "data_extracao_oficial": "2025-07-29T06:04:41.982869",
      "auditoria_governo": "COMPLETA",
      "latitude": -21.107704299999998,
      "longitude": -44.1594439
    },
    {
      "position": 4,
      "title": "Plano B Tiradentes",
      "place_id": "ChIJXYXpGay4oQARiBm3yeEVSIE",
      "rating": 4.1,
      "reviews": 604,
      "type": "Bar",
      "address": "R. Min. Gabriel Passos, 79 - Tiradentes, MG, 36325-000, Brasil",
      "phone": "+55 32 99806-2564",
      "website": "https://planobtiradentes.com.br/",
      "hours": "Fechado ⋅ Abre qua. às 12:00",
      "cidade_oficial": "Tiradentes, MG",
      "categoria_governo": "pubs",
      "data_extracao_oficial": "2025-07-29T06:04:43.723254",
      "auditoria_governo": "COMPLETA",
      "latitude": -21.1099013,
      "longitude": -44.1749854
    },
    {
      "position": 7,
      "title": "Conto de Réis o Bar",
      "place_id": "ChIJFwxvkqy4oQARhJfMJX4w17A",
      "rating": 4.2,
      "reviews": 270,
      "type": "Bar",
      "address": "Largo Forras, 62 - Tiradentes, MG, 36325-000, Brasil",
      "phone": "",
      "website": "http://www.contodereis.com.br/",
      "hours": "Fechado ⋅ Abre às 18:00",
      "cidade_oficial": "Tiradentes, MG",
      "categoria_governo": "pubs",
      "data_extracao_oficial": "2025-07-29T06:04:43.723254",
      "auditoria_governo": "COMPLETA",
      "latitude": -21.110164299999997,
      "longitude": -44.1735648
    },
    {
      "position": 9,
      "title": "mineiríssimo bar",
      "place_id": "ChIJsz-T9eu5oQART_d5VKfkMcU",
      "rating": 5,
      "reviews": 60,
      "type": "Bar",
      "address": "R. Min. Gabriel Passos, 280a - Centro, Tiradentes - MG, 36325-000, Brasil",
      "phone": "+55 31 97241-1457",
      "website": "",
      "hours": "Fechado ⋅ Abre qua. às 17:00",
      "cidade_oficial": "Tiradentes, MG",
      "categoria_governo": "pubs",
      "data_extracao_oficial": "2025-07-29T06:04:43.723254",
      "auditoria_governo": "COMPLETA",
      "latitude": -21.108659,
      "longitude": -44.1763447
    },
    {
      "position": 10,
      "title": "Taberna Tiradentes",
      "place_id": "ChIJAd0-JC65oQAR9Ba_R_nmlh0",
      "rating": 3.6,
      "reviews": 11,
      "type": "Bar",
      "address": "R. Resende Costa, 66 - Centro, Tiradentes - MG, 36325-000, Brasil",
      "phone": "+55 32 99195-6682",
      "website": "",
      "hours": "Fechado ⋅ Abre qui. às 17:00",
      "cidade_oficial": "Tiradentes, MG",
      "categoria_governo": "pubs",
      "data_extracao_oficial": "2025-07-29T06:04:43.723254",
      "auditoria_governo": "COMPLETA",
      "latitude": -21.1106291,
      "longitude": -44.1736402
    },
    {
      "position": 11,
      "title": "Botecão Raiz",
      "place_id": "ChIJaauMEy6_oQAR6khyfopdvho",
      "rating": 4.8,
      "reviews": 13,
      "type": "Bar",
      "address": "R. Alvarenga Peixoto, 1055a - Tiradentes, MG, 36325-000, Brasil",
      "phone": "",
      "website": "",
      "hours": "",
      "cidade_oficial": "Tiradentes, MG",
      "categoria_governo": "pubs",
      "data_extracao_oficial": "2025-07-29T06:04:43.723254",
      "auditoria_governo": "COMPLETA",
      "latitude": -21.1059542,
      "longitude": -44.155936
    },
    {
      "position": 14,
      "title": "Empório Vó Alice",
      "place_id": "ChIJk_MqVmW5oQARS9IbNKY_v3c",
      "rating": 4.6,
      "reviews": 43,
      "type": "Gastropub",
      "address": "R. da Camara, 37 - Centro, Tiradentes - MG, 36325-000, Brasil",
      "phone": "+55 32 99927-3048",
      "website": "",
      "hours": "Fechado ⋅ Abre às 08:30",
      "cidade_oficial": "Tiradentes, MG",
      "categoria_governo": "pubs",
      "data_extracao_oficial": "2025-07-29T06:04:43.723254",
      "auditoria_governo": "COMPLETA",
      "latitude": -21.1097161,
      "longitude": -44.1779812
    },
    {
      "position": 16,
      "title": "Restaurante Celso",
      "place_id": "ChIJN4JjkKy4oQARF7iAIIa_D28",
      "rating": 4.5,
      "reviews": 1275,
      "type": "Restaurante Mineiro",
      "address": "Largo das Forras, 80 - Tiradentes, MG, 36325-000, Brasil",
      "phone": "+55 32 99843-8722",
      "website": "https://conectetiradentes.com.br/atrativos/restaurantre-celso-1697542882293x108748069508481020",
      "hours": "Fechado ⋅ Abre qua. às 12:00",
      "cidade_oficial": "Tiradentes, MG",
      "categoria_governo": "pubs",
      "data_extracao_oficial": "2025-07-29T06:04:43.723254",
      "auditoria_governo": "COMPLETA",
      "latitude": -21.1101627,
      "longitude": -44.1737465
    },
    {
      "position": 17,
      "title": "Taberna d'Omar - Cozinha Artesanal (Tiradentes)",
      "place_id": "ChIJY2nmwkm5oQARPW8n35ZXzWE",
      "rating": 4.6,
      "reviews": 104,
      "type": "Restaurante",
      "address": "R. Direita, 187 - Centro, Tiradentes - MG, 36325-000, Brasil",
      "phone": "+55 32 99117-3382",
      "website": "",
      "hours": "Fechado ⋅ Abre qui. às 09:00",
      "cidade_oficial": "Tiradentes, MG",
      "categoria_governo": "pubs",
      "data_extracao_oficial": "2025-07-29T06:04:43.723254",
      "auditoria_governo": "COMPLETA",
      "latitude": -21.109959,
      "longitude": -44.175723
    },
    {
      "position": 19,
      "title": "Rampa das Flores",
      "place_id": "ChIJ-TrUiKu4oQARNv5xXHJJRhc",
      "rating": 4.4,
      "reviews": 25,
      "type": "Shopping center",
      "address": "R. Direita, 189 - Tiradentes, MG, 36325-000, Brasil",
      "phone": "",
      "website": "",
      "hours": "Aberto 24 horas",
      "cidade_oficial": "Tiradentes, MG",
      "categoria_governo": "pubs",
      "data_extracao_oficial": "2025-07-29T06:04:43.723254",
      "auditoria_governo": "COMPLETA",
      "latitude": -21.1104804,
      "longitude": -44.1751052
    },
    {
      "position": 20,
      "title": "Tandooh's Pub",
      "place_id": "ChIJeVptsuW_oQARcBiz8SGRmtA",
      "rating": "",
      "reviews": 0,
      "type": "Pub irlandês",
      "address": "R. Joaquim Ramalho, 248 - Cuiabá, Tiradentes - MG, 36325-000, Brasil",
      "phone": "+55 32 99983-0069",
      "website": "",
      "hours": "",
      "cidade_oficial": "Tiradentes, MG",
      "categoria_governo": "pubs",
      "data_extracao_oficial": "2025-07-29T06:04:43.723254",
      "auditoria_governo": "COMPLETA",
      "latitude": -21.111225899999997,
      "longitude": -44.1675251
    },
    {
      "position": 1,
      "title": "Sorveteria Aurus Tiradentes MG",
      "place_id": "ChIJa47QrmG5oQARiBK_6I5-AY0",
      "rating": 4.6,
      "reviews": 89,
      "type": "Sorveteria",
      "address": "Largo das Forras, 62b - centro, Tiradentes - MG, 36325-000, Brasil",
      "phone": "+55 32 99972-1340",
      "website": "https://instagram.com/sorveteriaaurustiradentes?igshid=YmMyMTA2M2Y=",
      "hours": "Fechado ⋅ Abre qua. às 11:00",
      "cidade_oficial": "Tiradentes, MG",
      "categoria_governo": "sorveterias",
      "data_extracao_oficial": "2025-07-29T06:04:45.727646",
      "auditoria_governo": "COMPLETA",
      "latitude": -21.1102043,
      "longitude": -44.1735397
    },
    {
      "position": 3,
      "title": "Gelatos da Vila",
      "place_id": "ChIJGUhpHym5oQARa0fMjNh3XJU",
      "rating": 4.4,
      "reviews": 156,
      "type": "Sorveteria",
      "address": "R. Min. Gabriel Passos, 155 - Centro, Tiradentes - MG, 36325-000, Brasil",
      "phone": "+55 32 99810-3004",
      "website": "https://www.angatutiradentes.com/gelatos-da-vila",
      "hours": "Fechado ⋅ Abre às 11:00",
      "cidade_oficial": "Tiradentes, MG",
      "categoria_governo": "sorveterias",
      "data_extracao_oficial": "2025-07-29T06:04:45.727646",
      "auditoria_governo": "COMPLETA",
      "latitude": -21.109007599999998,
      "longitude": -44.176004299999995
    },
    {
      "position": 4,
      "title": "DeliGeli",
      "place_id": "ChIJRyadylG5oQARI-79o-Wp6E8",
      "rating": 4.5,
      "reviews": 20,
      "type": "Sorveteria",
      "address": "R. Min. Gabriel Passos, 85 - Centro, Tiradentes - MG, 36325-000, Brasil",
      "phone": "+55 32 3554-1149",
      "website": "https://deligeli.com.br/",
      "hours": "Fechado ⋅ Abre às 12:00",
      "cidade_oficial": "Tiradentes, MG",
      "categoria_governo": "sorveterias",
      "data_extracao_oficial": "2025-07-29T06:04:45.727646",
      "auditoria_governo": "COMPLETA",
      "latitude": -21.1098192,
      "longitude": -44.175054599999996
    },
    {
      "position": 5,
      "title": "Noi Tre Gelateria",
      "place_id": "ChIJ3-36KwC5oQAR_0zxvX8Dy3w",
      "rating": 4.3,
      "reviews": 25,
      "type": "Sorveteria",
      "address": "Largo das Forras, 80 - Tiradentes, MG, 36325-000, Brasil",
      "phone": "",
      "website": "",
      "hours": "",
      "cidade_oficial": "Tiradentes, MG",
      "categoria_governo": "sorveterias",
      "data_extracao_oficial": "2025-07-29T06:04:45.727646",
      "auditoria_governo": "COMPLETA",
      "latitude": -21.110360699999998,
      "longitude": -44.1739095
    },
    {
      "position": 6,
      "title": "Noitre Gelateria",
      "place_id": "ChIJJdAo1ju_oQAR8jWSUW8yFUs",
      "rating": 4.6,
      "reviews": 11,
      "type": "Sorveteria",
      "address": "Largo das forras, 88 - Tiradentes, MG, 36325-000, Brasil",
      "phone": "",
      "website": "",
      "hours": "Fechado ⋅ Abre às 11:00",
      "cidade_oficial": "Tiradentes, MG",
      "categoria_governo": "sorveterias",
      "data_extracao_oficial": "2025-07-29T06:04:45.727646",
      "auditoria_governo": "COMPLETA",
      "latitude": -21.109700999999998,
      "longitude": -44.1624865
    },
    {
      "position": 7,
      "title": "Quitandinha Tiradentes",
      "place_id": "ChIJQ9Jc9ju_oQARhXB5hpwHd4o",
      "rating": 5,
      "reviews": 1,
      "type": "Sorveteria",
      "address": "R. Joaquim Ramalho, 205 - Centro, Tiradentes - MG, 36325-000, Brasil",
      "phone": "",
      "website": "",
      "hours": "",
      "cidade_oficial": "Tiradentes, MG",
      "categoria_governo": "sorveterias",
      "data_extracao_oficial": "2025-07-29T06:04:45.727646",
      "auditoria_governo": "COMPLETA",
      "latitude": -21.1111179,
      "longitude": -44.16777
    },
    {
      "position": 8,
      "title": "Açaí da Sandra",
      "place_id": "ChIJqVR1T06_oQARUx_BqkA_rnw",
      "rating": 4.6,
      "reviews": 128,
      "type": "Sorveteria",
      "address": "R. Alberto Paoluci, 140 - Centro, Tiradentes - MG, 36325-000, Brasil",
      "phone": "+55 32 99100-4777",
      "website": "https://instagram.com/oacaidasandra?utm_medium=copy_link",
      "hours": "Fechado ⋅ Abre às 13:00",
      "cidade_oficial": "Tiradentes, MG",
      "categoria_governo": "sorveterias",
      "data_extracao_oficial": "2025-07-29T06:04:45.728656",
      "auditoria_governo": "COMPLETA",
      "latitude": -21.1097146,
      "longitude": -44.1698946
    },
    {
      "position": 9,
      "title": "Frutos De Goiás",
      "place_id": "ChIJNzSJLl25oQARDZFAcmpkw7w",
      "rating": 4.4,
      "reviews": 11,
      "type": "Sorveteria",
      "address": "R. dos Inconfidentes, 60 - Centro, Tiradentes - MG, 36325-000, Brasil",
      "phone": "+55 32 98851-7270",
      "website": "https://instagram.com/frutosdegoiastiradentesmg?igshid=YmMyMTA2M2Y=",
      "hours": "Fechado ⋅ Abre qua. às 10:00",
      "cidade_oficial": "Tiradentes, MG",
      "categoria_governo": "sorveterias",
      "data_extracao_oficial": "2025-07-29T06:04:45.728656",
      "auditoria_governo": "COMPLETA",
      "latitude": -21.1117718,
      "longitude": -44.1735861
    },
    {
      "position": 12,
      "title": "Cantinho Doce Sorveteria",
      "place_id": "ChIJo6OAFES_oQARw1eYoibn1Ug",
      "rating": 4,
      "reviews": 2,
      "type": "Doceria",
      "address": "R. Joaquim Ramalho, 122 - Tiradentes, MG, 36325-000, Brasil",
      "phone": "",
      "website": "",
      "hours": "",
      "cidade_oficial": "Tiradentes, MG",
      "categoria_governo": "sorveterias",
      "data_extracao_oficial": "2025-07-29T06:04:45.728656",
      "auditoria_governo": "COMPLETA",
      "latitude": -21.1114608,
      "longitude": -44.1684108
    },
    {
      "position": 13,
      "title": "Joca Churros e Sorvetes",
      "place_id": "ChIJWTnBOeO5oQARO6kZ0fCHinw",
      "rating": 5,
      "reviews": 2,
      "type": "Sorveteria",
      "address": "R. dos Inconfidentes, 98 A - Tiradentes, MG, 36325-000, Brasil",
      "phone": "+55 37 98842-3169",
      "website": "",
      "hours": "Fechado ⋅ Abre às 11:00",
      "cidade_oficial": "Tiradentes, MG",
      "categoria_governo": "sorveterias",
      "data_extracao_oficial": "2025-07-29T06:04:45.728656",
      "auditoria_governo": "COMPLETA",
      "latitude": -21.1112155,
      "longitude": -44.1729911
    },
    {
      "position": 15,
      "title": "Sorveteria de Minas",
      "place_id": "ChIJA4mx0ha5oQARepYgdfsev_g",
      "rating": "",
      "reviews": 0,
      "type": "Sorveteria",
      "address": "R. Min. Gabriel Passos, 80 - Centro, Tiradentes - MG, 36325-000, Brasil",
      "phone": "+55 32 99986-8681",
      "website": "",
      "hours": "Fechado ⋅ Abre às 09:30",
      "cidade_oficial": "Tiradentes, MG",
      "categoria_governo": "sorveterias",
      "data_extracao_oficial": "2025-07-29T06:04:45.728656",
      "auditoria_governo": "COMPLETA",
      "latitude": -21.1097011,
      "longitude": -44.1749194
    },
    {
      "position": 1,
      "title": "Queijos Tiradentes",
      "place_id": "ChIJu_0X8M_HoQARoW-MoviCMqA",
      "rating": 5,
      "reviews": 273,
      "type": "Fabricante de queijo",
      "address": "R. Antônio Gabriel Rosa - Tiradentes, MG, 36325-000, Brasil",
      "phone": "+55 32 99915-7089",
      "website": "https://instagram.com/queijostiradentes?igshid=YmMyMTA2M2Y=",
      "hours": "Fechado ⋅ Abre às 07:30",
      "cidade_oficial": "Tiradentes, MG",
      "categoria_governo": "queijarias",
      "data_extracao_oficial": "2025-07-29T06:04:48.065683",
      "auditoria_governo": "COMPLETA",
      "latitude": -21.118211499999997,
      "longitude": -44.1809595
    },
    {
      "position": 2,
      "title": "Ouro Canastra Q'JARIA",
      "place_id": "ChIJ1fLnBay4oQARKjEi5gSFjNA",
      "rating": 4.6,
      "reviews": 138,
      "type": "Loja de queijos",
      "address": "R. Direita, 205 A - Tiradentes, MG, 36325-000, Brasil",
      "phone": "+55 32 98871-1389",
      "website": "https://www.instagram.com/ouro_canastra/?hl=pt-br",
      "hours": "Fechado ⋅ Abre às 10:00",
      "cidade_oficial": "Tiradentes, MG",
      "categoria_governo": "queijarias",
      "data_extracao_oficial": "2025-07-29T06:04:48.065683",
      "auditoria_governo": "COMPLETA",
      "latitude": -21.1101672,
      "longitude": -44.1756045
    },
    {
      "position": 3,
      "title": "Casa do Queijo",
      "place_id": "ChIJpwLNzFy5oQARUOsJkY98nVc",
      "rating": 4.7,
      "reviews": 173,
      "type": "Loja de queijos",
      "address": "WhatsApp&(32)9866, 9795_R. Henrique Diniz, 146 - Centro, Tiradentes - MG, 36325-000, Brasil",
      "phone": "",
      "website": "",
      "hours": "Fechado ⋅ Abre às 09:00",
      "cidade_oficial": "Tiradentes, MG",
      "categoria_governo": "queijarias",
      "data_extracao_oficial": "2025-07-29T06:04:48.065683",
      "auditoria_governo": "COMPLETA",
      "latitude": -21.1109108,
      "longitude": -44.1721992
    },
    {
      "position": 4,
      "title": "Queijaria Tiradentes",
      "place_id": "ChIJSd5lknG5oQARh2HIoAV6lgA",
      "rating": 5,
      "reviews": 2,
      "type": "Loja atacadista de alimentos",
      "address": "R. Min. Gabriel Passos, 212 - Centro, Tiradentes - MG, 36325-000, Brasil",
      "phone": "+55 32 99807-5646",
      "website": "http://www.queijariatiradentes.com.br/",
      "hours": "",
      "cidade_oficial": "Tiradentes, MG",
      "categoria_governo": "queijarias",
      "data_extracao_oficial": "2025-07-29T06:04:48.065683",
      "auditoria_governo": "COMPLETA",
      "latitude": -21.108899599999997,
      "longitude": -44.175789099999996
    },
    {
      "position": 5,
      "title": "Queijaria Da Vovó",
      "place_id": "ChIJC_NHkdq5oQARUmFtHqpjWGE",
      "rating": 4.8,
      "reviews": 9,
      "type": "Loja de queijos",
      "address": "R. Direita, 10 - Centro, Tiradentes - MG, 36325-000, Brasil",
      "phone": "+55 35 99135-1422",
      "website": "https://www.queijariadavovo.com/",
      "hours": "Fechado ⋅ Abre às 09:00",
      "cidade_oficial": "Tiradentes, MG",
      "categoria_governo": "queijarias",
      "data_extracao_oficial": "2025-07-29T06:04:48.065683",
      "auditoria_governo": "COMPLETA",
      "latitude": -21.1091944,
      "longitude": -44.1772153
    },
    {
      "position": 6,
      "title": "Sítio da Conquista",
      "place_id": "ChIJNWWymYPHoQAR99m0VONiHeg",
      "rating": 4.8,
      "reviews": 12,
      "type": "Fabricante de queijo",
      "address": "Unnamed Road, Tiradentes - MG, 36325-000, Brasil",
      "phone": "+55 31 98979-0490",
      "website": "",
      "hours": "Fechado ⋅ Abre sex. às 13:00",
      "cidade_oficial": "Tiradentes, MG",
      "categoria_governo": "queijarias",
      "data_extracao_oficial": "2025-07-29T06:04:48.065683",
      "auditoria_governo": "COMPLETA",
      "latitude": -21.1255783,
      "longitude": -44.1844105
    },
    {
      "position": 7,
      "title": "Empório Sabores do Sítio - Queijo da Lúcia",
      "place_id": "ChIJ_ZPNj8fHoQARMEP1l0U2IGo",
      "rating": 4.7,
      "reviews": 22,
      "type": "Loja de queijos",
      "address": "Av. Min. Gabriel Passos, n° 4083 - Candonga, Tiradentes - MG, 36325-000, Brasil",
      "phone": "+55 32 98443-1660",
      "website": "http://saboresdositio.com/",
      "hours": "Fechado ⋅ Abre às 10:00",
      "cidade_oficial": "Tiradentes, MG",
      "categoria_governo": "queijarias",
      "data_extracao_oficial": "2025-07-29T06:04:48.065683",
      "auditoria_governo": "COMPLETA",
      "latitude": -21.119321799999998,
      "longitude": -44.1987181
    },
    {
      "position": 9,
      "title": "Queijaria nossa senhora do Pilar",
      "place_id": "ChIJ66dWQwDBoQARmIM5D3F1_kY",
      "rating": "",
      "reviews": 0,
      "type": "Fabricante de queijo",
      "address": "Rua Caixa D'Agua - Tiradentes, MG, 36325-000, Brasil",
      "phone": "",
      "website": "",
      "hours": "",
      "cidade_oficial": "Tiradentes, MG",
      "categoria_governo": "queijarias",
      "data_extracao_oficial": "2025-07-29T06:04:48.065683",
      "auditoria_governo": "COMPLETA",
      "latitude": -21.144800099999998,
      "longitude": -44.1103143
    },
    {
      "position": 2,
      "title": "Empório Santo Antônio Restaurante",
      "place_id": "ChIJxc3j-k2_oQARQcLgBCCK0X4",
      "rating": 4.8,
      "reviews": 611,
      "type": "Restaurante",
      "address": "R. Belica, 133 - Parque das Abelhas, Tiradentes - MG, 36325-000, Brasil",
      "phone": "+55 32 3355-2433",
      "website": "https://www.instagram.com/emporiosantoantonio/",
      "hours": "Fechado ⋅ Abre qui. às 12:00",
      "cidade_oficial": "Tiradentes, MG",
      "categoria_governo": "emporios",
      "data_extracao_oficial": "2025-07-29T06:04:48.907492",
      "auditoria_governo": "COMPLETA",
      "latitude": -21.1076165,
      "longitude": -44.1677993
    },
    {
      "position": 4,
      "title": "Emporio Tiradentes",
      "place_id": "ChIJDXUt_lK_oQARSTCJri2SFQU",
      "rating": 5,
      "reviews": 3,
      "type": "Loja de bebidas alcoólicas",
      "address": "R. Alberto Paoluci, 144 - Centro, Tiradentes - MG, 36325-000, Brasil",
      "phone": "+55 32 3355-1774",
      "website": "https://www.facebook.com/Emporio-Tiradentes-234900447035522/",
      "hours": "",
      "cidade_oficial": "Tiradentes, MG",
      "categoria_governo": "emporios",
      "data_extracao_oficial": "2025-07-29T06:04:48.907492",
      "auditoria_governo": "COMPLETA",
      "latitude": -21.109752999999998,
      "longitude": -44.169828599999995
    },
    {
      "position": 5,
      "title": "Empório Heliodora",
      "place_id": "ChIJpRyL3Hi_oQARx_HIAICKPHk",
      "rating": 4.6,
      "reviews": 12,
      "type": "Artesanato",
      "address": "Largo das Forras, nº 38 - Centro Histórico, Tiradentes - MG, 36325-000, Brasil",
      "phone": "+55 32 99912-1275",
      "website": "",
      "hours": "Fechado ⋅ Abre às 09:00",
      "cidade_oficial": "Tiradentes, MG",
      "categoria_governo": "emporios",
      "data_extracao_oficial": "2025-07-29T06:04:48.907492",
      "auditoria_governo": "COMPLETA",
      "latitude": -21.1106314,
      "longitude": -44.1740202
    },
    {
      "position": 6,
      "title": "RESTAURANTE-CAFETERIA-LOJA EMPÓRIO MIRANTE",
      "place_id": "ChIJV68pxim_oQARM89O30iON5s",
      "rating": 4.8,
      "reviews": 58,
      "type": "Restaurante",
      "address": "R. Alvarenga Peixoto, 1637 - Capote, Tiradentes - MG, 36325-000, Brasil",
      "phone": "+55 32 98404-2450",
      "website": "",
      "hours": "Fechado ⋅ Abre qua. às 10:00",
      "cidade_oficial": "Tiradentes, MG",
      "categoria_governo": "emporios",
      "data_extracao_oficial": "2025-07-29T06:04:48.907492",
      "auditoria_governo": "COMPLETA",
      "latitude": -21.103477599999998,
      "longitude": -44.1533674
    },
    {
      "position": 7,
      "title": "Empório Santa Inês de Tiradentes",
      "place_id": "ChIJBf84Oqy4oQARjJZBQyl6i5c",
      "rating": 4.3,
      "reviews": 3,
      "type": "Loja de Roupa",
      "address": "R. Min. Gabriel Passos, 212 - Centro, Tiradentes - MG, 36325-000, Brasil",
      "phone": "+55 32 3355-2792",
      "website": "",
      "hours": "Fechado ⋅ Abre às 09:00",
      "cidade_oficial": "Tiradentes, MG",
      "categoria_governo": "emporios",
      "data_extracao_oficial": "2025-07-29T06:04:48.907492",
      "auditoria_governo": "COMPLETA",
      "latitude": -21.1089,
      "longitude": -44.1757985
    },
    {
      "position": 12,
      "title": "Águas de Tiradentes - Empório de Aromas",
      "place_id": "ChIJzfH1aAC_oQARMW8EvQiZcI8",
      "rating": 5,
      "reviews": 20,
      "type": "Loja de cosmético",
      "address": "R. dos Inconfidentes, 320 - Centro, Tiradentes - MG, 36325-000, Brasil",
      "phone": "+55 32 99906-8050",
      "website": "",
      "hours": "Fechado ⋅ Abre qui. às 11:00",
      "cidade_oficial": "Tiradentes, MG",
      "categoria_governo": "emporios",
      "data_extracao_oficial": "2025-07-29T06:04:48.907492",
      "auditoria_governo": "COMPLETA",
      "latitude": -21.1113291,
      "longitude": -44.1706906
    },
    {
      "position": 13,
      "title": "Restaurante e Empório Casa de Vó",
      "place_id": "ChIJ1aBgaTG_oQARU9m7cOn2mmk",
      "rating": 4.4,
      "reviews": 27,
      "type": "Restaurante",
      "address": "R. dos Inconfidentes, 320 - Tiradentes, MG, 36325-000, Brasil",
      "phone": "+55 32 98521-6666",
      "website": "https://patrickferreirapkz.wixsite.com/restaurantecasadevo",
      "hours": "Fechado ⋅ Abre às 11:00",
      "cidade_oficial": "Tiradentes, MG",
      "categoria_governo": "emporios",
      "data_extracao_oficial": "2025-07-29T06:04:48.907492",
      "auditoria_governo": "COMPLETA",
      "latitude": -21.1114093,
      "longitude": -44.170673199999996
    },
    {
      "position": 14,
      "title": "Empório Patrícia Barbosa",
      "place_id": "ChIJvdgBFEC_oQARBWTU8f9fAA4",
      "rating": 4.8,
      "reviews": 8,
      "type": "Loja de artigos domésticos",
      "address": "R. Alvarenga Peixoto, 1580 - Tiradentes, MG, 36325-000, Brasil",
      "phone": "+55 32 3355-1158",
      "website": "https://www.emporiopatriciabarbosa.com.br/",
      "hours": "Fechado ⋅ Abre às 09:00",
      "cidade_oficial": "Tiradentes, MG",
      "categoria_governo": "emporios",
      "data_extracao_oficial": "2025-07-29T06:04:48.907492",
      "auditoria_governo": "COMPLETA",
      "latitude": -21.1038304,
      "longitude": -44.1537832
    },
    {
      "position": 17,
      "title": "Vó Maria empório",
      "place_id": "ChIJX0aXbQC5oQARlsI62XNid_c",
      "rating": "",
      "reviews": 0,
      "type": "Armazém",
      "address": "R. Resende Costa, 54b - Centro, Tiradentes - MG, 36325-000, Brasil",
      "phone": "+55 32 99999-0891",
      "website": "",
      "hours": "Fechado ⋅ Abre às 09:00",
      "cidade_oficial": "Tiradentes, MG",
      "categoria_governo": "emporios",
      "data_extracao_oficial": "2025-07-29T06:04:48.907492",
      "auditoria_governo": "COMPLETA",
      "latitude": -21.1107364,
      "longitude": -44.1744519
    },
    {
      "position": 18,
      "title": "Mercado Tunico",
      "place_id": "ChIJMyyArKy4oQARvbl1VVH5DD0",
      "rating": 4.6,
      "reviews": 935,
      "type": "Empório gourmet",
      "address": "R. Henrique Diniz, 155 - Centro, Tiradentes - MG, 36325-000, Brasil",
      "phone": "+55 32 3355-1132",
      "website": "https://mercadotunico.com.br/",
      "hours": "Fechado ⋅ Abre às 08:00",
      "cidade_oficial": "Tiradentes, MG",
      "categoria_governo": "emporios",
      "data_extracao_oficial": "2025-07-29T06:04:48.907492",
      "auditoria_governo": "COMPLETA",
      "latitude": -21.1110775,
      "longitude": -44.172097799999996
    },
    {
      "position": 19,
      "title": "PORQUIN NA LATA",
      "place_id": "ChIJbbzqchu_oQARn_tmNAcxf6Y",
      "rating": 4.9,
      "reviews": 20,
      "type": "Empório gourmet",
      "address": "R. dos Inconfidentes, 421 - ljB - Centro, Tiradentes - MG, 36325-000, Brasil",
      "phone": "+55 32 99816-3296",
      "website": "https://www.instagram.com/porquinnalata/",
      "hours": "Fechado ⋅ Abre às 09:00",
      "cidade_oficial": "Tiradentes, MG",
      "categoria_governo": "emporios",
      "data_extracao_oficial": "2025-07-29T06:04:48.907492",
      "auditoria_governo": "COMPLETA",
      "latitude": -21.111032299999998,
      "longitude": -44.1697991
    },
    {
      "position": 20,
      "title": "Empório Águas Santas",
      "place_id": "ChIJbdma7L65oQAReyC2Zrkmr2Y",
      "rating": 3.6,
      "reviews": 5,
      "type": "Bar",
      "address": "Av. Pres. Castelo Branco, 2012 - São Pedro (Colônia do Marçal), Tiradentes - MG, 36325-000, Brasil",
      "phone": "+55 32 99934-1384",
      "website": "",
      "hours": "Fechado ⋅ Abre às 16:00",
      "cidade_oficial": "Tiradentes, MG",
      "categoria_governo": "emporios",
      "data_extracao_oficial": "2025-07-29T06:04:48.907492",
      "auditoria_governo": "COMPLETA",
      "latitude": -21.0784384,
      "longitude": -44.2062198
    },
    {
      "position": 2,
      "title": "Mercado Municipal Cidade Tiradentes",
      "place_id": "ChIJN9lH_Z9vzpQR6ybsbUdAoaI",
      "rating": 4,
      "reviews": 505,
      "type": "Mercado de produtos agrícolas",
      "address": "antigo Sacolão, Av. dos Metalúrgicos, 2229 - Cidade Tiradentes, São Paulo - SP, 08471-000, Brasil",
      "phone": "+55 11 3227-3474",
      "website": "",
      "hours": "Fechado ⋅ Abre às 08:00",
      "cidade_oficial": "Tiradentes, MG",
      "categoria_governo": "mercados_municipais",
      "data_extracao_oficial": "2025-07-29T06:04:51.102621",
      "auditoria_governo": "COMPLETA",
      "latitude": -23.5992513,
      "longitude": -46.401604
    }
  ],
  "relatorio_categorias": {
    "lojas_presentes": {
      "disponivel": 20,
      "extraidos": 20,
      "status": "COMPLETO"
    },
    "lojas_artesanato": {
      "disponivel": 20,
      "extraidos": 20,
      "status": "COMPLETO"
    },
    "lojas_decoracao": {
      "disponivel": 20,
      "extraidos": 20,
      "status": "COMPLETO"
    },
    "galerias_arte": {
      "disponivel": 9,
      "extraidos": 9,
      "status": "COMPLETO"
    },
    "lojas_souvenir": {
      "disponivel": 9,
      "extraidos": 9,
      "status": "COMPLETO"
    },
    "estudios_arte": {
      "disponivel": 14,
      "extraidos": 14,
      "status": "COMPLETO"
    },
    "vinicolas": {
      "disponivel": 0,
      "extraidos": 0,
      "status": "COMPLETO"
    },
    "cervejarias_artesanais": {
      "disponivel": 9,
      "extraidos": 9,
      "status": "COMPLETO"
    },
    "alambiques": {
      "disponivel": 4,
      "extraidos": 4,
      "status": "COMPLETO"
    },
    "docerias": {
      "disponivel": 20,
      "extraidos": 20,
      "status": "COMPLETO"
    },
    "agencias_turismo": {
      "disponivel": 20,
      "extraidos": 20,
      "status": "COMPLETO"
    },
    "confeitarias": {
      "disponivel": 20,
      "extraidos": 20,
      "status": "COMPLETO"
    },
    "cafeterias": {
      "disponivel": 20,
      "extraidos": 20,
      "status": "COMPLETO"
    },
    "hamburguerias": {
      "disponivel": 20,
      "extraidos": 20,
      "status": "COMPLETO"
    },
    "pubs": {
      "disponivel": 20,
      "extraidos": 20,
      "status": "COMPLETO"
    },
    "sorveterias": {
      "disponivel": 15,
      "extraidos": 15,
      "status": "COMPLETO"
    },
    "queijarias": {
      "disponivel": 9,
      "extraidos": 9,
      "status": "COMPLETO"
    },
    "emporios": {
      "disponivel": 20,
      "extraidos": 20,
      "status": "COMPLETO"
    },
    "mercados_municipais": {
      "disponivel": 2,
      "extraidos": 2,
      "status": "COMPLETO"
    }
  }
}