position,title,place_id,rating,reviews,type,address,phone,website,hours,cidade_oficial,categoria_governo,data_extracao_oficial,auditoria_governo,latitude,longitude
1,Entre Minas Loja Colaborativa,ChIJ18cMJ5mPpgARyMgpuU0HbJs,5,231,Artesanato,"R. Direita, 7 - Tiradentes, MG, 36325-000, Brasil",,,Fechado ⋅ Abre às 09:00,"Tiradentes, MG",lojas_presentes,2025-07-29T06:04:09.729074,COMPLETA,-21.109225,-44.1770413
2,Santoficio Decoração Criativa,ChIJGyxCt__HoQAR7XmshrImcfY,5,265,Decorador de interiores,"R. Min. Gabriel Passos, 260 - centro, Tiradentes - MG, 36325-000, Brasil",+55 32 99194-5201,http://www.santoficio.art.br/,Fechado ⋅ Abre às 10:00,"Tiradentes, MG",lojas_presentes,2025-07-29T06:04:09.729074,COMPLETA,-21.1085834,-44.1763857
3,Marcas Mineiras Loja e Café,ChIJGdAawqy4oQAR5MBYc-4jk7s,4.8,986,Café,"R. Sra. das Mercês, 49 - Centro, Tiradentes - MG, 36325-000, Brasil",+55 32 3355-1682,http://www.marcasmineiras.com.br/,Fechado ⋅ Abre às 10:00,"Tiradentes, MG",lojas_presentes,2025-07-29T06:04:09.729074,COMPLETA,-21.109391,-44.173316299999996
4,Solino Artesanato,ChIJs88aCRG_oQARPPojpFXKzjI,4.5,187,Loja de artigos domésticos,"Unnamed Road, 36325-000, Tiradentes - MG, Brasil",,,Fechado ⋅ Abre qua. às 09:00,"Tiradentes, MG",lojas_presentes,2025-07-29T06:04:09.729074,COMPLETA,-21.0994304,-44.146104
5,MeLeva Tiradentes,ChIJO7QNtuy5oQARfVIIdS-w2fM,4.3,15,Loja de souvenires,"R. Resende Costa, 67A - Centro, Tiradentes - MG, 36325-000, Brasil",+55 31 99200-2956,,Fechado ⋅ Abre às 09:00,"Tiradentes, MG",lojas_presentes,2025-07-29T06:04:09.729074,COMPLETA,-21.1105566,-44.174493399999996
6,Criativa Papelaria,ChIJmTmeq1O_oQAR78WhN_wPZus,4.8,88,Papelaria,"R. Alberto Paoluci, nº67 - Centro, Tiradentes - MG, 36325-000, Brasil",+55 32 98868-6975,,Fechado ⋅ Abre às 09:00,"Tiradentes, MG",lojas_presentes,2025-07-29T06:04:09.729074,COMPLETA,-21.109317,-44.1704338
7,Detalhe Mineiro,ChIJH7DP7Ku5oQAR_TJNmvl0gEQ,4.4,8,Loja de souvenires,"R. Resende Costa, 76 - Centro, Tiradentes - MG, 36325-000, Brasil",+55 32 99821-2271,,Fechado ⋅ Abre às 09:30,"Tiradentes, MG",lojas_presentes,2025-07-29T06:04:09.729074,COMPLETA,-21.1107677,-44.174323799999996
8,Romer Resende,ChIJHU7zza24oQARnhTWjGqwQ0s,4.9,18,Loja,"R. Santíssima Trindade, 332 - Centro, Tiradentes - MG, 36325-000, Brasil",+55 32 99906-3332,,Aberto 24 horas,"Tiradentes, MG",lojas_presentes,2025-07-29T06:04:09.729074,COMPLETA,-21.112587299999998,-44.1830559
9,Casa das Latas Tiradentes - Loja modelo,ChIJzY3n_lW5oQARemDITn3d9jQ,3.9,87,Loja de presentes,"Largo das Forras, 4 - Centro histórico, Tiradentes - MG, 36325-000, Brasil",+55 32 99831-6509,http://www.casadaslatasoficial.com/,Fechado ⋅ Abre às 09:00,"Tiradentes, MG",lojas_presentes,2025-07-29T06:04:09.729074,COMPLETA,-21.110634899999997,-44.1741088
10,Faemam Estanhos - Loja Tiradentes,ChIJl-kQhay4oQARYAPTX7sDJes,4.9,14,Galeria de Arte,"R. Direita, 64 - Tiradentes, MG, 36325-000, Brasil",+55 32 3371-8292,http://faemam.com.br/,,"Tiradentes, MG",lojas_presentes,2025-07-29T06:04:09.729074,COMPLETA,-21.1097856,-44.1760885
11,Casa das Latas - Tiradentes,ChIJJUMQmJ-5oQARwn4IWX9s4LA,3.8,107,Loja de presentes,"R. Min. Gabriel Passos, 225 - Centro, Tiradentes - MG, 36325-000, Brasil",+55 32 99848-9517,http://www.casadaslatasoficial.com/,Fechado ⋅ Abre às 09:00,"Tiradentes, MG",lojas_presentes,2025-07-29T06:04:09.729074,COMPLETA,-21.1090396,-44.1760075
12,Baobá Artesanato De Bom Gosto,ChIJofB7p4m5oQARyq9L7oQDKAk,5,2,Loja de presentes,"R. Min. Gabriel Passos, 186 - Tiradentes, MG, 36325-000, Brasil",+55 31 99983-0381,,Fechado ⋅ Abre qua. às 09:00,"Tiradentes, MG",lojas_presentes,2025-07-29T06:04:09.729074,COMPLETA,-21.1091882,-44.1756089
13,Maria Fumaça Brinquedos Educativos,ChIJ53wKd6y4oQARcxoU3kSFgVc,4.6,51,Loja de Brinquedos,"R. Direita, 266 A - Centro, Tiradentes - MG, 36325-000, Brasil",+55 32 3355-1622,,Fechado ⋅ Abre às 10:00,"Tiradentes, MG",lojas_presentes,2025-07-29T06:04:09.729074,COMPLETA,-21.110574,-44.175582
14,Integrare Atelier e Loja,ChIJj-6LNxa_oQARRcJ4_jyUbSo,5,17,Loja,"R. Alvarenga Peixoto, 1097 - A, Tiradentes - MG, 36325-000, Brasil",+55 31 99579-2881,https://www.instagram.com/integrareateliereloja?igsh=MXl6d2ZmZTZ4aDBr,Fechado ⋅ Abre às 09:00,"Tiradentes, MG",lojas_presentes,2025-07-29T06:04:09.729074,COMPLETA,-21.1052516,-44.1551718
15,Juliu's Variedades,ChIJpUycnFO_oQAROJTpcOi-Eoo,4.7,14,Loja de variedades,"R. dos Inconfidentes, 510 - Centro, Tiradentes - MG, 36325-000, Brasil",+55 32 3355-1851,https://www.facebook.com/julius.varie,Fechado ⋅ Abre às 09:00,"Tiradentes, MG",lojas_presentes,2025-07-29T06:04:09.729074,COMPLETA,-21.1115726,-44.1693664
16,Arte & Tal,ChIJh9oFl6y4oQAR5EfPmXaUs3g,4.4,16,Loja de artigos domésticos,"R. Resende Costa, 8 - Centro, Tiradentes - MG, 36325-000, Brasil",+55 32 3355-1451,,Fechado ⋅ Abre às 09:00,"Tiradentes, MG",lojas_presentes,2025-07-29T06:04:09.729074,COMPLETA,-21.1107598,-44.1749654
17,Loja Ave Maria,ChIJoeetl6y4oQARRSoWBRVv64s,4.6,46,Loja de vestidos,"R. Min. Gabriel Passos, 175 - Centro, Tiradentes - MG, 36325-000, Brasil",+55 32 3355-1598,http://www.avemaria.store/,Fechado ⋅ Abre às 09:00,"Tiradentes, MG",lojas_presentes,2025-07-29T06:04:09.729074,COMPLETA,-21.109249,-44.175748999999996
18,Folk Art,ChIJi3qsN_e5oQARJ9sest7Pr5Q,4.6,5,Loja de artigos domésticos,"R. Direita, 10 b - Tiradentes, MG, 36325-000, Brasil",,,Fechado ⋅ Abre às 09:00,"Tiradentes, MG",lojas_presentes,2025-07-29T06:04:09.729074,COMPLETA,-21.1099206,-44.177973699999995
19,Chico Rei Tiradentes,ChIJyZOgCzK5oQARo3uid2a0XM4,4.9,135,Loja de camisetas,"R. Direita, 232 - Centro, Tiradentes - MG, 36325-000, Brasil",,http://chicorei.com/,Fechado ⋅ Abre às 10:00,"Tiradentes, MG",lojas_presentes,2025-07-29T06:04:09.729074,COMPLETA,-21.110405099999998,-44.17561
20,Empório Lembranças de Minas Tiradentes,ChIJz6XOq3-5oQARZh9uernaN64,5,2,Artesanato,"R. Min. Gabriel Passos, 81 - Centro, Tiradentes - MG, 36325-000, Brasil",+55 32 98809-2377,,Fechado ⋅ Abre qui. às 10:00,"Tiradentes, MG",lojas_presentes,2025-07-29T06:04:09.729074,COMPLETA,-21.109913199999998,-44.175042399999995
1,Galeria N.S. do Rosário (Ciart Artesanato),ChIJ1fmAkKy4oQARXR4f45quH1Y,4.8,46,Artesanato,"R. Resende Costa, 28 - Centro, Tiradentes - MG, 36325-000, Brasil",+55 32 3355-1691,,Fechado ⋅ Abre às 10:00,"Tiradentes, MG",lojas_artesanato,2025-07-29T06:04:12.319828,COMPLETA,-21.1107281,-44.174788299999996
4,LJE-tiradentes artesanato em ferro madeira,ChIJJexV_wjBoQARWQY4UWKC52E,5,2,Artesanato,"Tv. Herculano José dos Santos, 52 - alto da torre, Tiradentes - MG, 36325-000, Brasil",+55 32 99995-4636,,Aberto 24 horas,"Tiradentes, MG",lojas_artesanato,2025-07-29T06:04:12.319828,COMPLETA,-21.117915399999998,-44.1682586
6,Arte Vó Joana,ChIJuSGpOqy4oQAR74PeBzdik4M,4.7,3,Artesanato,"Av. Gov. Israel Pinheiro, 196 - Tiradentes, MG, 36325-000, Brasil",+55 32 3355-1775,,Aberto 24 horas,"Tiradentes, MG",lojas_artesanato,2025-07-29T06:04:12.319828,COMPLETA,-21.1200343,-44.1695096
7,Feira de Artesanato,ChIJdfjRhiG5oQARXrVzpxl-MPw,4,24,Feira de artesanato,"R. Custódio Gomes, 39 - Tiradentes, MG, 36325-000, Brasil",,,Fechado ⋅ Abre sex. às 09:00,"Tiradentes, MG",lojas_artesanato,2025-07-29T06:04:12.319828,COMPLETA,-21.1090533,-44.174908599999995
8,Mãos de Chica Artesanato,ChIJ1WjE-qW5oQARxsH_N7mx9DA,4.8,4,Artesanato,"R. Min. Gabriel Passos, 160 - Centro, Tiradentes - MG, 36325-000, Brasil",+55 32 98868-5313,,Fechado ⋅ Abre às 10:00,"Tiradentes, MG",lojas_artesanato,2025-07-29T06:04:12.319828,COMPLETA,-21.1094278,-44.175260699999995
9,Artesanato clebinho,ChIJVSBfKa2_oQARIuxh48UXf4U,4.9,13,Artesanato,"R. Alvarenga Peixoto, 1089 - Capote, Tiradentes - MG, 36325-000, Brasil",+55 32 99961-7021,,Fechado ⋅ Abre às 09:00,"Tiradentes, MG",lojas_artesanato,2025-07-29T06:04:12.319828,COMPLETA,-21.1056986,-44.155581999999995
10,-Pães Caseiro Artesanais Tiradentes-Feira dos Produtores -Estação da María Fumaça,ChIJIYYe-fq_oQAR6udI-oUeBKE,5,1,Feira de artesanato,"Av. Gov. Israel Pinheiro, 72 - Tiradentes, MG, 36325-000, Brasil",+55 32 99162-6330,,Fechado ⋅ Abre qui. às 09:00,"Tiradentes, MG",lojas_artesanato,2025-07-29T06:04:12.319828,COMPLETA,-21.1146834,-44.168067199999996
11,Arte em Dobro,ChIJXzL3B1jHoQARBKmFaT7K-qU,4.7,16,Loja de materiais para artesanato,"R. Alvarenga Peixoto, 970 - Tiradentes, MG, 36325-000, Brasil",+55 32 99117-4034,,Fechado ⋅ Abre às 08:00,"Tiradentes, MG",lojas_artesanato,2025-07-29T06:04:12.319828,COMPLETA,-21.1063828,-44.1568269
12,Mãos de Fada artesanato tds,ChIJWUkzU_q5oQARhd211ie-hJA,5,6,Artesanato,"Praça das mercês 69 1, R. Min. Gabriel Passos, 131 - loja 2 - Centro, Tiradentes - MG, 36325-000, Brasil",+55 32 99922-8121,,Fechado ⋅ Abre qua. às 10:00,"Tiradentes, MG",lojas_artesanato,2025-07-29T06:04:12.319828,COMPLETA,-21.1102474,-44.174592
13,Libertas Rosas Artesanato em Ferro,ChIJS3Z0W1O_oQARo6EI4TFj5vQ,4.9,18,Artesanato,"R. dos Inconfidentes, 275 - Tiradentes, MG, 36325-000, Brasil",+55 32 98892-2561,https://www.libertasrosas.com.br/,Fechado ⋅ Abre às 08:30,"Tiradentes, MG",lojas_artesanato,2025-07-29T06:04:12.319828,COMPLETA,-21.111179699999997,-44.1711965
14,Brasileirinho A Casa de Arte do Brasil,ChIJrdpOpK64oQARmJy3etfls_s,4,8,Loja,"R. Direita, 129 - Centro, Tiradentes - MG, 36325-000, Brasil",+55 32 98856-7002,https://brasileirinhotiradentes.com.br/,Fechado ⋅ Abre às 10:00,"Tiradentes, MG",lojas_artesanato,2025-07-29T06:04:12.319828,COMPLETA,-21.1096993,-44.1761361
15,Vantuil Artesanato,ChIJd-KQVKe4oQAR1G1mBq4UjsA,4.9,7,Loja de artigos domésticos,"R. Frei Veloso, 795 - Tiradentes, MG, 36325-000, Brasil",+55 32 99822-4098,http://vantuil-artesanato9.webnode.com/,Fechado ⋅ Abre às 08:00,"Tiradentes, MG",lojas_artesanato,2025-07-29T06:04:12.319828,COMPLETA,-21.111232299999998,-44.1861635
17,Loja JG Móveis e Artesanato,ChIJtS__QEW_oQARUpZLqyC6-RM,5,1,Artesanato,"R. Alvarenga Peixoto, 702 - Tiradentes, MG, 36325-000, Brasil",+55 11 93076-3398,https://www.facebook.com/jg.moveiseartes/,Fechado ⋅ Abre às 10:00,"Tiradentes, MG",lojas_artesanato,2025-07-29T06:04:12.319828,COMPLETA,-21.109138299999998,-44.1615373
18,Minas Arte Própria (móveis Decoração Ferro Madeira Artesanatos Tiradentes Mg ),ChIJkRGHSYu5oQARwSqb6Uq45fc,4.7,9,Loja de móveis rústicos,"R. dos Inconfidentes, 103 B - Centro, Tiradentes - MG, 36325-000, Brasil",+55 32 98841-3582,http://www.minasartepropria.com.br/,Fechado ⋅ Abre às 10:00,"Tiradentes, MG",lojas_artesanato,2025-07-29T06:04:12.319828,COMPLETA,-21.1111036,-44.172847399999995
20,Moitará Arte Indígena,ChIJ-2eoD0G_oQARlz57vbyDvNk,4.8,54,Galeria de Arte,"Capote (estrada para o Bichinho, R. Alvarenga Peixoto, 1027 - Tiradentes, MG, 36325-000, Brasil",+55 32 98703-1230,http://www.moitara.com.br/,Fechado ⋅ Abre qua. às 09:00,"Tiradentes, MG",lojas_artesanato,2025-07-29T06:04:12.319828,COMPLETA,-21.1061233,-44.1566419
3,Divinas Gerais Móveis Rústicos e Decorações,ChIJidlDErPAoQARKVjgkw19ApM,4.9,54,Loja de móveis,"loja da fábrica -Avenida Governador Israel Pinheiro, 950, R. Direita, 139 - loja 2 - Várzea, Tiradentes - MG, 36325-000, Brasil",+55 32 98861-6584,https://www.instagram.com/divinasgerais,Fechado ⋅ Abre às 09:00,"Tiradentes, MG",lojas_decoracao,2025-07-29T06:04:14.008629,COMPLETA,-21.1295099,-44.1704662
4,Graziela Guimarães,ChIJu5nWKKy4oQAR7ibkr-5pOho,4.8,12,"Loja de artigos para cama, mesa e banho","R. da Camara, 34 - Centro, Tiradentes - MG, 36325-000, Brasil",+55 32 3355-1410,http://www.grazielaguimaraes.com.br/,Fechado ⋅ Abre às 11:00,"Tiradentes, MG",lojas_decoracao,2025-07-29T06:04:14.008629,COMPLETA,-21.1097268,-44.177707299999994
5,Empório Patrícia Barbosa,ChIJL1ozg6y4oQARQv0aHm5_iSA,4.9,16,Loja de móveis,"R. Resende Costa, 48 - Tiradentes, MG, 36325-000, Brasil",+55 32 3355-1158,http://www.emporiopatriciabarbosa.com.br/,Fechado ⋅ Abre às 09:00,"Tiradentes, MG",lojas_decoracao,2025-07-29T06:04:14.008629,COMPLETA,-21.110818,-44.174606999999995
9,Canto de Casa,ChIJr5L2XAK5oQARsO6ZD0O0LKo,5,7,Loja de artigos domésticos,"Largo das Forras, 04 - Centro, Tiradentes - MG, 36325-000, Brasil",+55 32 98866-1858,,Fechado ⋅ Abre qua. às 09:00,"Tiradentes, MG",lojas_decoracao,2025-07-29T06:04:14.008629,COMPLETA,-21.1106551,-44.174195999999995
11,Carapina Móveis,ChIJvwdqk1W_oQAR3mi3XsgPCRA,5,12,Loja de móveis rústicos,"Av. Gov. Israel Pinheiro, 280 - Estacao, Tiradentes - MG, 36325-000, Brasil",+55 32 98514-2556,http://carapinamoveis.com.br/,Fechado ⋅ Abre às 09:00,"Tiradentes, MG",lojas_decoracao,2025-07-29T06:04:14.008629,COMPLETA,-21.116409299999997,-44.168541499999996
12,Bendita Santíssima Arte & Móveis Rústicos,ChIJYaID6rzHoQARC0wLgPISGPI,4.8,27,Loja de móveis,"L.go do Ó, 15 C - Centro, Tiradentes - MG, 36325-000, Brasil",+55 32 99925-8896,http://www.benditasantissimamoveis.com.br/,Fechado ⋅ Abre às 08:30,"Tiradentes, MG",lojas_decoracao,2025-07-29T06:04:14.008629,COMPLETA,-21.108624799999998,-44.177092599999995
13,Casa da Pedra Decoração,ChIJUwxTVEG_oQARQGYC-yUlGLo,5,2,Loja de pedras,"R. Alvarenga Peixoto, 813 - Tiradentes, MG, 36325-000, Brasil",+55 32 99977-5351,,Fechado ⋅ Abre às 09:00,"Tiradentes, MG",lojas_decoracao,2025-07-29T06:04:14.008629,COMPLETA,-21.106685,-44.158062699999995
14,CASA DE MARIA DECORAÇÕES,ChIJG7IiDwC5oQARGuZjj04Ayok,5,1,Loja de artigos domésticos,"R. Resende Costa, 45 - Tiradentes, MG, 36325-000, Brasil",,,Fechado ⋅ Abre às 09:00,"Tiradentes, MG",lojas_decoracao,2025-07-29T06:04:14.008629,COMPLETA,-21.1106227,-44.174637
15,Silveira moveis,ChIJy64oI7O_oQARgVz3NjVC37k,5,3,Loja de móveis,"Rua padroeiro santo, R. Padroeiro Santo Antônio, 253 - Cascalho, Tiradentes - MG, 36325-000, Brasil",+55 32 99184-4005,,Aberto 24 horas,"Tiradentes, MG",lojas_decoracao,2025-07-29T06:04:14.008629,COMPLETA,-21.107838299999997,-44.1701134
16,Empório do Ó,ChIJMwvuv1O_oQARN24Htgy6Q2M,4.5,71,Empório gourmet,"R. Direita, 224 - Centro, Tiradentes - MG, 36325-000, Brasil",+55 32 3355-2315,,Fechado ⋅ Abre às 12:00,"Tiradentes, MG",lojas_decoracao,2025-07-29T06:04:14.008629,COMPLETA,-21.110311,-44.1755034
17,Marcenaria Tiradentes,ChIJyeJMUVO_oQAReJUgVtjHVdE,4.8,24,Loja de artigos domésticos,"R. dos Inconfidentes, 233 - Tiradentes, MG, 36325-000, Brasil",+55 32 98418-8641,http://www.marcenariatiradentes.com.br/,Fechado ⋅ Abre às 09:00,"Tiradentes, MG",lojas_decoracao,2025-07-29T06:04:14.008629,COMPLETA,-21.111017099999998,-44.171575399999995
20,Ó Barroco,ChIJ1e88J6y4oQARoPKkLRjT1t8,5,10,Antiquário,"R. do Chafariz, 54 - Centro, Tiradentes - MG, 36325-000, Brasil",+55 32 98856-1907,,Fechado ⋅ Abre às 10:00,"Tiradentes, MG",lojas_decoracao,2025-07-29T06:04:14.008629,COMPLETA,-21.1087053,-44.1769196
1,Galeria de Arte Oscar Araripe,ChIJGVMwnq64oQARSmoxUOAlm-c,4.8,11,Galeria de Arte,"R. da Camara, 92 - Centro, Tiradentes - MG, 36325-000, Brasil",+55 32 3355-1148,http://www.oscarararipe.com.br/,Fechado ⋅ Abre às 09:00,"Tiradentes, MG",galerias_arte,2025-07-29T06:04:16.149585,COMPLETA,-21.109433499999998,-44.177427099999996
2,Sergio Ramos Atelier e Galeria de Arte Ltda,ChIJxTRm_Ku4oQARNKVMLaA0KKY,4.9,50,Galeria de Arte,"R. da Camara, 83 - Centro Histórico, Tiradentes - MG, 36325-000, Brasil",+55 32 98707-7914,http://www.atelierdoarquiteto.com.br/,Fechado ⋅ Abre às 10:00,"Tiradentes, MG",galerias_arte,2025-07-29T06:04:16.149585,COMPLETA,-21.109413699999998,-44.177526199999996
3,Território Tiradentes,ChIJR9i3BCC5oQARWQ7KN32s8tc,4.8,5,Galeria de Arte,"R. da Camara, 103 - Tiradentes, MG, 36325-000, Brasil",+55 21 97002-7833,,Fechado ⋅ Abre às 10:00,"Tiradentes, MG",galerias_arte,2025-07-29T06:04:16.149585,COMPLETA,-21.1092679,-44.1774582
4,GALERIA JB LAZZARINI,ChIJJ-86Y7C5oQARzBFtbb3BpVI,5,14,Galeria de Arte,"Av. Gov. Israel Pinheiro, 780 - Parque dos Bandeirantes, Tiradentes - MG, 36325-000, Brasil",+55 31 99833-8822,http://www.jblazzarini.com.br/,Fechado ⋅ Abre qua. às 09:00,"Tiradentes, MG",galerias_arte,2025-07-29T06:04:16.149585,COMPLETA,-21.1288903,-44.1707265
6,Badalo Studio Galeria,ChIJkZhl3nu_oQARM8YDxzHN_No,5,6,Galeria de Arte,"R. Alvarenga Peixoto, 1637 - Capote, Tiradentes - MG, 36325-000, Brasil",+55 32 99908-1268,,Fechado ⋅ Abre às 09:00,"Tiradentes, MG",galerias_arte,2025-07-29T06:04:16.149585,COMPLETA,-21.1035577,-44.153416
7,Ateliê Valin Branco,ChIJf8I9bFO_oQARqz_pV00wL54,4.9,15,Galeria de Arte,"R. dos Inconfidentes, 349 - Tiradentes, MG, 36325-000, Brasil",+55 32 99115-9613,,Fechado ⋅ Abre às 09:30,"Tiradentes, MG",galerias_arte,2025-07-29T06:04:16.149585,COMPLETA,-21.1110406,-44.1705233
8,Galería por Thi,ChIJWZy4TnO5oQARPRJboGAPX8c,,0,Galeria de Arte,"R. Direita, 266 - Centro, Tiradentes - MG, 36325-000, Brasil",+55 32 99178-8000,,Fechado ⋅ Abre às 10:00,"Tiradentes, MG",galerias_arte,2025-07-29T06:04:16.149585,COMPLETA,-21.1106554,-44.1753636
2,KAYA TATTOO studio & escola,ChIJ7eTbXFO_oQARNu4o7G0NCmc,4.8,197,Estúdio de tatuagem e colocação de piercing,"R. Antônio Teixeira Carvalho, 148 - Centro, Tiradentes - MG, 36325-000, Brasil",+55 32 99940-5902,,Fechado ⋅ Abre às 09:00,"Tiradentes, MG",estudios_arte,2025-07-29T06:04:19.640539,COMPLETA,-21.112975,-44.168676999999995
3,LAUD,ChIJW2JnY6y4oQARoVChgcC2yLY,5,4,Estúdio de pintura,"CPF/CNPJ: 18.670.376/0001-79, R. Min. Gabriel Passos, 30 - store - Centro, Tiradentes - MG, 36325-000, Brasil",+55 32 98877-0002,,,"Tiradentes, MG",estudios_arte,2025-07-29T06:04:19.640539,COMPLETA,-21.1098648,-44.1746713
4,RM Cerâmica Artística,ChIJdXZDD1K_oQARIEE6fXHcvm0,5,17,Centro de arte,"R. Ver. Antônio Hipólito Nascimento, 128 - Cascalho, Tiradentes - MG, 36325-000, Brasil",+55 32 99829-1060,https://www.rmceramicaartistica.com.br/,Fechado ⋅ Abre às 10:00,"Tiradentes, MG",estudios_arte,2025-07-29T06:04:19.640539,COMPLETA,-21.1072915,-44.171059899999996
9,Traços de Época,ChIJszSJ9Ku4oQARaTHPP2O1ysg,3.7,10,Estúdio de fotografia,"R. Padre Toledo, 114 - Centro, Tiradentes - MG, 36325-000, Brasil",+55 32 3355-1875,,Temporarily closed,"Tiradentes, MG",estudios_arte,2025-07-29T06:04:19.640539,COMPLETA,-21.110591499999998,-44.1772874
10,Produção Nacional - Ateliê Vinícius Rosa Rios,ChIJCQicw1O_oQARWkzA1aB4QA4,4.8,10,Centro de arte,"R. Joaquim Ramalho, 164 - Tiradentes, MG, 36325-000, Brasil",+55 32 98877-1337,,Fechado ⋅ Abre às 08:00,"Tiradentes, MG",estudios_arte,2025-07-29T06:04:19.640539,COMPLETA,-21.1112735,-44.168040399999995
12,Estúdio Márcia silva,ChIJXb0wtJG_oQARsJQvYGfmfm8,5,42,Salão de Beleza,"R. Francisco Pereira Morais, 206 - Tiradentes, MG, 36325-000, Brasil",+55 21 98513-5585,,Fechado ⋅ Abre às 08:00,"Tiradentes, MG",estudios_arte,2025-07-29T06:04:19.640539,COMPLETA,-21.1095477,-44.168966
13,Origem das Artes,ChIJZQWQSlO5oQARN0IOEuVh1mA,,0,Designer de interiores,"R. Min. Gabriel Passos, 186A - Centro, Tiradentes - MG, 36325-000, Brasil",+55 32 99922-1363,,Fechado ⋅ Abre às 09:00,"Tiradentes, MG",estudios_arte,2025-07-29T06:04:19.640539,COMPLETA,-21.1091914,-44.175604799999995
14,Design Filmes,ChIJQ5nLKY7IoQARqBKl3aAASO8,5,1,Estúdio de fotografia,"Av. Gov. Israel Pinheiro, 104 - Várzea de Baixo, Tiradentes - MG, 36325-000, Brasil",+55 31 99692-5005,http://www.designfilmes.com/,Fechado ⋅ Abre às 08:00,"Tiradentes, MG",estudios_arte,2025-07-29T06:04:19.640539,COMPLETA,-21.119386,-44.169030799999994
1,50 Tons de Malte,ChIJRQKh6q64oQARH6Qe7zW3Wvg,4.8,495,Bar de cervejas,"R. dos Inconfidentes, 98 - Centro Histórico, Tiradentes - MG, 36325-000, Brasil",+55 32 99833-1316,http://www.facebook.com/50tonsdemalte,Fechado ⋅ Abre qua. às 16:00,"Tiradentes, MG",cervejarias_artesanais,2025-07-29T06:04:23.037959,COMPLETA,-21.111201299999998,-44.1729905
2,Cervejaria em Tiradentes - Duquim,ChIJnXmF5tO_oQARrNetotbq6OI,4.6,208,Bar de cervejas,"R. Alvarenga Peixoto, 1548 - Tiradentes, MG, 36325-000, Brasil",+55 37 99988-4104,https://www.instagram.com/cervejariaduquim,Fechado ⋅ Abre sex. às 11:00,"Tiradentes, MG",cervejarias_artesanais,2025-07-29T06:04:23.037959,COMPLETA,-21.1044898,-44.1542029
3,Cervejaria Sanfras,ChIJyfIGLmPBoQARCx5l0Y4Xu-M,5,40,Microcervejaria,"Av. Gov. Israel Pinheiro, 1700 - Parque dos Bandeirantes, Tiradentes - MG, 36325-000, Brasil",+55 32 98879-7044,https://www.instagram.com/cervejaria_sanfras/,Fechado ⋅ Abre às 07:30,"Tiradentes, MG",cervejarias_artesanais,2025-07-29T06:04:23.037959,COMPLETA,-21.132811399999998,-44.1693912
4,Entrepot du Vin,ChIJQ4q2Cqy4oQARsngfa4n5Y0w,4.8,505,Bar de vinhos,"R. Direita, 205 - Tiradentes, MG, 36325-000, Brasil",+55 32 99992-2050,https://www.instagram.com/entrepotduvin/,Fechado ⋅ Abre às 14:00,"Tiradentes, MG",cervejarias_artesanais,2025-07-29T06:04:23.037959,COMPLETA,-21.1101571,-44.1756083
5,Deck Choperia Bar,ChIJEVpeR3u5oQARxCTrYNSg_Jk,4.8,159,Restaurante,"Praça Silva Jardin, 29 - Centro, Tiradentes - MG, 36325-000, Brasil",+55 32 99913-9653,,Fechado ⋅ Abre às 11:00,"Tiradentes, MG",cervejarias_artesanais,2025-07-29T06:04:23.037959,COMPLETA,-21.1093702,-44.1751
6,Barouk Chopp Beer Café,ChIJlbO9h6y4oQAREBTpnZT2RCA,4.1,1281,Bar,"R. Min. Gabriel Passos, 23 - Centro, Tiradentes - MG, 36325-000, Brasil",+55 32 3355-1652,http://barouktiradentes.com.br/,Fechado ⋅ Abre às 09:30,"Tiradentes, MG",cervejarias_artesanais,2025-07-29T06:04:23.037959,COMPLETA,-21.110244899999998,-44.1743892
7,Choperia Jardins's.a.,ChIJ6d5CYUe5oQARCPKW6fePen0,3.1,52,Bar,"R. Pedra Rosa, 73 - Centro, Tiradentes - MG, 36325-000, Brasil",,,,"Tiradentes, MG",cervejarias_artesanais,2025-07-29T06:04:23.037959,COMPLETA,-21.1083186,-44.177040299999994
8,Cervejaria Wiermann,ChIJYetK1Zm5oQARJQBD1ZgXHwY,5,1,Microcervejaria,"Centro Histórico, Tiradentes - MG, 36325-000, Brasil",+55 31 99283-0748,,Temporarily closed,"Tiradentes, MG",cervejarias_artesanais,2025-07-29T06:04:23.037959,COMPLETA,-21.1102277,-44.1756016
9,Boteco da Fábrica - Chopperia Tiradentes,ChIJ1abcTKrAoQARsHebTQaQc8M,4.3,47,Bar,"Av. Gov. Israel Pinheiro, 72 - Várzea De Baixo, Tiradentes - MG, 36325-000, Brasil",+55 31 99722-1517,,Temporarily closed,"Tiradentes, MG",cervejarias_artesanais,2025-07-29T06:04:23.037959,COMPLETA,-21.1201302,-44.168917099999994
1,Cachaça Mazuma Mineira - Alambique e Loja,ChIJBwNaC02-oQARzPdLHjKKHdE,4.6,2731,Loja de bebidas,"Rua São Bento, 300, Bichinho, Prados - MG, 36320-000, Brasil",+55 32 99928-8004,https://mazuma.com.br/,Fechado ⋅ Abre às 09:30,"Tiradentes, MG",alambiques,2025-07-29T06:04:24.931790,COMPLETA,-21.092239,-44.123317
2,Cachaça Velho Ferreira - Tiradentes,ChIJ42KxB-e5oQARHgDDymIpp_4,4.7,59,Loja de bebidas alcoólicas,"R. Resende Costa, 62 - Centro, Tiradentes - MG, 36325-000, Brasil",+55 32 99813-6384,https://www.velhoferreira.com.br/,Fechado ⋅ Abre às 09:00,"Tiradentes, MG",alambiques,2025-07-29T06:04:24.931790,COMPLETA,-21.1106718,-44.1744468
3,Confidências Mineiras - Ateliê da Cachaça,ChIJQ-1Pfay4oQAR3XMsXPjkDqU,4.2,39,Loja de bebidas alcoólicas,"R. Min. Gabriel Passos, 210 - A - Centro, Tiradentes - MG, 36325-000, Brasil",+55 32 99977-2071,https://www.ateliedacachaca.com.br/,Fechado ⋅ Abre às 10:00,"Tiradentes, MG",alambiques,2025-07-29T06:04:24.931790,COMPLETA,-21.109054699999998,-44.1757505
4,Du Tonel Cachaçaria e Produtos Artesanais,ChIJgSAGak-_oQAR53u016MJYXA,5,5,Loja de Presentes,"Estrada Vitoriano Veloso - Zona Rural, Tiradentes - MG, 36325-000, Brasil",+55 21 99525-1493,,,"Tiradentes, MG",alambiques,2025-07-29T06:04:24.931790,COMPLETA,-21.0996576,-44.146125
1,Chico Doceiro,ChIJYxnzqFO_oQARV8v-HwStANA,4.7,1363,Doceria,"Tv. Francisco Pereira de Morais, 74 - Tiradentes, MG, 36325-000, Brasil",+55 32 3355-1900,,Fechado ⋅ Abre às 08:30,"Tiradentes, MG",docerias,2025-07-29T06:04:26.560323,COMPLETA,-21.1105603,-44.169650999999995
2,Doceria Flor De Lotus,ChIJs6iZZay4oQARD9Bjuujfbkg,4.2,143,Doceria,"R. Min. Gabriel Passos, 70 - Centro, Tiradentes - MG, 36325-000, Brasil",+55 32 3355-1445,,Fechado ⋅ Abre às 09:00,"Tiradentes, MG",docerias,2025-07-29T06:04:26.560323,COMPLETA,-21.109672,-44.1749626
3,Doce de Leite do Bolota,ChIJi2X1Vk2_oQARiXQz_d56_I4,4.5,291,Doceria,"Rua Ver, R. Ver. Antônio Hipólito Nascimento, 187 - Tiradentes, MG, 36325-000, Brasil",+55 32 98827-0292,https://www.facebook.com/docedeleitedobolota,Fechado ⋅ Abre às 09:00,"Tiradentes, MG",docerias,2025-07-29T06:04:26.560323,COMPLETA,-21.107358899999998,-44.1715057
4,O Rocambole & Cia,ChIJ7ytDbqy4oQARzH4LF-XXow0,4,819,Doceria,"R. Min. Gabriel Passos, 115 - Tiradentes, MG, 36325-000, Brasil",,,Fechado ⋅ Abre às 09:00,"Tiradentes, MG",docerias,2025-07-29T06:04:26.560323,COMPLETA,-21.1096552,-44.1752049
5,Padaria Padre Toledo,ChIJhwxP9au4oQARwKV89FsmTzE,4.1,667,Padaria,"R. Direita, 231 - Centro Histórico, Tiradentes - MG, 36325-000, Brasil",+55 32 3355-1474,,,"Tiradentes, MG",docerias,2025-07-29T06:04:26.560323,COMPLETA,-21.1103328,-44.1757801
6,Confeitaria da Pri,ChIJL0Flttu_oQARU7QXZHXisT0,5,13,Confeitaria,"R. São José Del Rei - Mococa, Tiradentes - MG, 36325-000, Brasil",+55 32 98471-1301,https://instagram.com/confeitariadaprii?utm_medium=copy_link,Fechado ⋅ Abre qua. às 12:30,"Tiradentes, MG",docerias,2025-07-29T06:04:26.560323,COMPLETA,-21.1173845,-44.181616399999996
7,Jane's Apple,ChIJNWuBt5m5oQARWplmabDn5xg,4.8,841,Doceria,"R. São Francisco de Paula, 48 - Centro, Tiradentes - MG, 36325-000, Brasil",+55 32 99938-0229,https://janesapple.com.br/,Fechado ⋅ Abre qui. às 14:00,"Tiradentes, MG",docerias,2025-07-29T06:04:26.560323,COMPLETA,-21.1095209,-44.1736699
8,Doceria Flor De Lotus,ChIJAe6fXFO_oQAR9lDOoTt2Ka8,2.7,10,Loja,"R. dos Inconfidentes, 285 - Centro, Tiradentes - MG, 36325-000, Brasil",,,Fechado ⋅ Abre às 09:00,"Tiradentes, MG",docerias,2025-07-29T06:04:26.560323,COMPLETA,-21.1111695,-44.1711333
9,Vitoriano Doces - Loja Tiradentes,ChIJi2K23ry5oQARhGH2LoMuQB0,4.2,5,Doceria,"R. Min. Gabriel Passos, 238 - Centro, Tiradentes - MG, 36325-000, Brasil",+55 32 98491-4502,https://www.vitorianodoces.com.br/,Fechado ⋅ Abre qui. às 09:00,"Tiradentes, MG",docerias,2025-07-29T06:04:26.560323,COMPLETA,-21.1089254,-44.175848599999995
10,"Vitoriano Doces - Loja Rua Direita, Tiradentes",ChIJDTblWgC5oQARyHzt9ILD1qY,5,1,Doceria,"R. Direita, 10 - Centro Histórico, Tiradentes - MG, 36325-000, Brasil",+55 32 98491-4502,http://www.vitorianodoces.com.br/,Fechado ⋅ Abre qui. às 09:00,"Tiradentes, MG",docerias,2025-07-29T06:04:26.560323,COMPLETA,-21.1091399,-44.1772515
11,Doces Caseiros e Artes,ChIJRzcQpK64oQARO_B3nKhXM6c,4.5,6,Doceria,"R. do Chafariz, 26 - Centro, Tiradentes - MG, 36325-000, Brasil",,,Fechado ⋅ Abre às 09:00,"Tiradentes, MG",docerias,2025-07-29T06:04:26.560323,COMPLETA,-21.1088898,-44.177110299999995
12,Chocolateria Puro Cacau,ChIJ30HFkay4oQARw4uHEpkLEVM,4,186,Loja de chocolates,"Largo Forras, 30 - Centro, Tiradentes - MG, 36325-000, Brasil",+55 32 3355-1600,,Fechado ⋅ Abre às 09:00,"Tiradentes, MG",docerias,2025-07-29T06:04:26.560323,COMPLETA,-21.110639499999998,-44.1740583
14,Padaria Mister Pão,ChIJt6xfqFO_oQAR7XfOTnN1DTc,4.2,122,Padaria,"R. Francisco Pereira Morais, 93 - Tiradentes, MG, 36325-000, Brasil",+55 32 3355-2416,,Fechado ⋅ Abre às 07:00,"Tiradentes, MG",docerias,2025-07-29T06:04:26.560323,COMPLETA,-21.1102751,-44.1697352
15,Mania de Doce,ChIJ6fUD6szHoQAR24-jI7bTYfE,3,4,Confeitaria,"R. Frei Veloso, 403 B - Pacu, Tiradentes - MG, 36325-000, Brasil",+55 32 98817-0205,https://linktr.ee/confeitariamaniadedoce,Fechado ⋅ Abre às 07:00,"Tiradentes, MG",docerias,2025-07-29T06:04:26.560323,COMPLETA,-21.1122273,-44.1891707
16,"Sabores da Alessandra ( Salgados, Doces e Bolos )",ChIJOyC4LSe_oQAR-3PaXwdaByo,5,2,Confeitaria,"R. Alvarenga Peixoto, 331 - Cuiabá, Tiradentes - MG, 36356-000, Brasil",+55 32 99920-0214,http://bit.ly/3N0Mpaw,Fechado ⋅ Abre às 07:00,"Tiradentes, MG",docerias,2025-07-29T06:04:26.560323,COMPLETA,-21.1099647,-44.1643202
18,Padaria do Cuiabá,ChIJ7WwAMNu_oQAROIjKt_NxBkM,4,24,Padaria,"R. Alvarenga Peixoto, 299 - Cuiabá, Tiradentes - MG, 36325-000, Brasil",+55 32 99937-6153,,Aberto ⋅ Fecha às 18:00,"Tiradentes, MG",docerias,2025-07-29T06:04:26.560323,COMPLETA,-21.1100852,-44.164642699999995
19,Picolé do Amado Tiradentes,ChIJPdZUp6y4oQAR5wvjnBg3cKU,4.7,360,Sorveteria,"R. dos Inconfidentes, 79 - Bela Vista, Tiradentes - MG, 36325-000, Brasil",+55 32 99988-4899,http://www.picoledoamado.com.br/,Fechado ⋅ Abre às 11:00,"Tiradentes, MG",docerias,2025-07-29T06:04:26.560323,COMPLETA,-21.1109898,-44.172972099999996
20,Cacau Show - Chocolates,ChIJZQf6gzC5oQAR24qoELYYHJQ,4.7,13,Loja de chocolates,"R. dos Inconfidentes, 140 - Tiradentes, MG, 36325-000, Brasil",+55 32 98426-0564,https://www.cacaushow.com.br/,,"Tiradentes, MG",docerias,2025-07-29T06:04:26.560323,COMPLETA,-21.11124,-44.172526399999995
1,Agência uai trip Original Trip Turismo de Experiência,ChIJacU_U1K_oQARpFWUDVxewlE,4.8,134,Operador de turismo,"atendimento agendados WhatsApp, R. Martins Paolucci, 90 - Centro, Tiradentes - MG, 36325-000, Brasil",+55 32 98848-3283,https://www.instagram.com/uaitrip/,,"Tiradentes, MG",agencias_turismo,2025-07-29T06:04:33.558716,COMPLETA,-21.111888699999998,-44.173626899999995
2,Agencia de Turismo Estrada Real,ChIJle4falO_oQARHGTWh6Cwsdw,4.5,207,Agência de viagens,"R. dos Inconfidentes, 218 - Centro, Tiradentes - MG, 36325-000, Brasil",+55 32 3355-1187,https://www.tiradentesestradareal.com.br/,Fechado ⋅ Abre às 08:00,"Tiradentes, MG",agencias_turismo,2025-07-29T06:04:33.558716,COMPLETA,-21.1112957,-44.171794899999995
3,Uai Sô Agencia de Turismo,ChIJ1ThyiFO_oQARfluCu_gvw0I,4.3,143,Agência de turismo,"R. dos Inconfidentes, N° 407 - Centro, Tiradentes - MG, 36325-000, Brasil",+55 32 3355-2329,https://uaisoturismo.com/,Fechado ⋅ Abre às 08:00,"Tiradentes, MG",agencias_turismo,2025-07-29T06:04:33.558716,COMPLETA,-21.1111061,-44.1700297
4,Agência Trajjetus Receptivo,ChIJz4PnsK64oQAReNDX8SvIyp4,4.9,11,Escritório da empresa,"R. Jogo de Bola, 37 - Tiradentes, MG, 36325-000, Brasil",+55 32 99979-9836,,,"Tiradentes, MG",agencias_turismo,2025-07-29T06:04:33.558716,COMPLETA,-21.1091058,-44.1775866
5,Walking Tour Becos de Tiradentes,ChIJ_x3RTqy5oQAR1DFe0MfFCrk,4.9,187,Agência de turismo,"R. Custódio Gomes, 13 - Centro, Tiradentes - MG, 36325-000, Brasil",+55 32 98810-6628,https://tiradenteswalkingtour.com.br/,Fechado ⋅ Abre às 09:00,"Tiradentes, MG",agencias_turismo,2025-07-29T06:04:33.558716,COMPLETA,-21.1090177,-44.175176099999995
6,"CL Transportes viagens , Turismos e eventos",ChIJrdtBfADBoQARdcHwX_AIuPI,5,12,Agência de viagens a pontos turísticos,"R. Ovídio de Abreu, 1123 - Tiradentes, MG, 36325-000, Brasil",+55 32 99984-6298,https://www.instagram.com/cl_trasporte_viagens_e_evento?igsh=Mmo1N2xkMHl3cWZx,Aberto 24 horas,"Tiradentes, MG",agencias_turismo,2025-07-29T06:04:33.558716,COMPLETA,-21.122748899999998,-44.1704205
7,Mais Minas Turismo Receptivo,ChIJ4e3q72e5oQARqZEGPuf4wBU,4,2,Agência de turismo,"R. Santíssima Trindade, 16 - Tiradentes, MG, 36325-000, Brasil",+55 31 99978-7787,https://guiadaestrada.com.br/listings/mais-minas-turismo-receptivo/,Aberto 24 horas,"Tiradentes, MG",agencias_turismo,2025-07-29T06:04:33.558716,COMPLETA,-21.109799799999998,-44.1781722
8,Caminhos de Trilhas Viva Minas,ChIJNfQJQVK_oQAReNtThUfLZnE,4.7,24,Agência de viagens,"R. Custódio Gomes, 13 - Centro, Tiradentes - MG, 36325-000, Brasil",+55 32 99967-9665,,Fechado ⋅ Abre às 08:00,"Tiradentes, MG",agencias_turismo,2025-07-29T06:04:33.558716,COMPLETA,-21.108994499999998,-44.1751386
9,O que fazer em Tiradentes?,ChIJ5WzMJfW5oQARa8zce4A2B4M,5,1,Agência de turismo,"R. Custódio Gomes, 13 - Centro, Tiradentes - MG, 36325-000, Brasil",+55 32 98810-6628,http://oquefazeremtiradentes.com.br/,,"Tiradentes, MG",agencias_turismo,2025-07-29T06:04:33.558716,COMPLETA,-21.1089789,-44.1751869
10,HLERA OFF ROAD,ChIJj9S4FES_oQARvvrJjeYQwDs,4.4,217,Agência de turismo,"R. Alvarenga Peixoto, 990 - Tiradentes, MG, 36325-000, Brasil",+55 32 99822-0492,,Fechado ⋅ Abre qua. às 09:00,"Tiradentes, MG",agencias_turismo,2025-07-29T06:04:33.558716,COMPLETA,-21.106295199999998,-44.156473299999995
11,Dakar Loc,ChIJyfAHvx3BoQAR1ljs2X73bmM,4.7,58,Agência de viagens,"Av. Gov. Israel Pinheiro, 18 - Várzea, Tiradentes - MG, 36325-000, Brasil",+55 32 98423-6513,,Fechado ⋅ Abre qui. às 08:30,"Tiradentes, MG",agencias_turismo,2025-07-29T06:04:33.558716,COMPLETA,-21.1181566,-44.1691808
12,Operadora Tiradentesbrasil - Ecoturismo,ChIJ-WtMyqy4oQARvr2MKqR8d1Q,5,1,Agência de viagens,"R. Henrique Diniz, 119 - Centro, Tiradentes - MG, 36325-000, Brasil",+55 32 3355-2477,,Fechado ⋅ Abre às 09:00,"Tiradentes, MG",agencias_turismo,2025-07-29T06:04:33.558716,COMPLETA,-21.111217699999997,-44.1729875
13,Charretes Turísticas De Tiradentes,ChIJyXdjmqy4oQAR6UEwt9goIOk,2.3,35,Operador de turismo,"Tiradentes, MG, 36325-000, Brasil",+55 31 98444-1978,,,"Tiradentes, MG",agencias_turismo,2025-07-29T06:04:33.558716,COMPLETA,-21.1103204,-44.173642199999996
14,Andantes da Estrada Real,ChIJQwrVfQi_oQARicU21M9iTYc,5,50,Serviço de passeio a cavalo,"Rua Vereador José Inácio Veloso, 1455 - Cuiaba, Tiradentes - MG, 36325-000, Brasil",+55 32 99903-8242,https://www.instagram.com/andantesdaestradareal/,Aberto 24 horas,"Tiradentes, MG",agencias_turismo,2025-07-29T06:04:33.558716,COMPLETA,-21.112072299999998,-44.143111
15,Guia Turista Tiradentes,ChIJ4Tfnl1G_oQARTwXWPVGYQDY,,0,Agência de viagens,"R. Alvarenga Peixoto, 89 - Tiradentes, MG, 36325-000, Brasil",+55 32 3355-1530,,,"Tiradentes, MG",agencias_turismo,2025-07-29T06:04:33.558716,COMPLETA,-21.1102152,-44.1661389
16,Guia Passeios Ecológicos,ChIJexDMSlC_oQARUdT_RXzhWY4,5,1,Operador de turismo,"R. Alvarenga Peixoto, 09 - cuiaba, Tiradentes - MG, 36325-000, Brasil",+55 32 99940-8234,,Fechado ⋅ Abre sáb. às 07:00,"Tiradentes, MG",agencias_turismo,2025-07-29T06:04:33.558716,COMPLETA,-21.1102272,-44.1649363
17,City Tour Caminhos de Tiradentes,ChIJRUgmOAC5oQARN3RaDWqH9zk,5,1,Trilha de Caminhada,"R. Min. Gabriel Passos - Tiradentes, MG, 36325-000, Brasil",+55 32 99965-8707,http://caminhosdetiradentes.com.br/,,"Tiradentes, MG",agencias_turismo,2025-07-29T06:04:33.558716,COMPLETA,-21.110261599999998,-44.1739165
18,Jornal Tiradentes Gerais,ChIJ60_KRVK_oQARDOjq6Ac6fqs,4.5,51,Atração turística,"R. Francisco Pereira Morais, 220 - Tiradentes, MG, 36325-000, Brasil",+55 32 98848-3283,,Fechado ⋅ Abre às 09:00,"Tiradentes, MG",agencias_turismo,2025-07-29T06:04:33.558716,COMPLETA,-21.1094857,-44.1688581
19,Agad Viagens,ChIJ_zudLNm_oQARSCxzW9FaMt4,,0,Agência de turismo,"R. Padroeiro Santo Antônio, 146 - Tiradentes, MG, 36325-000, Brasil",+55 32 99863-2525,,Fechado ⋅ Abre às 09:00,"Tiradentes, MG",agencias_turismo,2025-07-29T06:04:33.558716,COMPLETA,-21.1065176,-44.1710674
20,Trilha do Carteiro,ChIJL9TLtzG_oQAROaWgTxmptNQ,4.7,272,Trilha de Caminhada,"Tiradentes, MG, 36325-000, Brasil",,,,"Tiradentes, MG",agencias_turismo,2025-07-29T06:04:33.558716,COMPLETA,-21.1004295,-44.1686597
10,Café Caramello Tiradentes Cafeteria,ChIJqarqFay4oQARNkEXbzLI5Ak,4.8,133,Café,"R. Min. Gabriel Passos, 238 - loja A - Centro, Tiradentes - MG, 36325-000, Brasil",+55 32 98702-4778,http://www.cafecaramello.com.br/,Fechado ⋅ Abre qui. às 09:00,"Tiradentes, MG",confeitarias,2025-07-29T06:04:35.150152,COMPLETA,-21.1087383,-44.1758655
11,Fábrica de pães oliveira,ChIJb6tOS2u_oQARq6YSvp4Bv4M,4.6,16,Padaria,"R. Padroeiro Santo Antônio, 216 - Centro, Tiradentes - MG, 36325-000, Brasil",+55 32 98468-7966,,Aberto ⋅ Fecha às 19:00,"Tiradentes, MG",confeitarias,2025-07-29T06:04:35.150152,COMPLETA,-21.1062734,-44.171457499999995
13,Padaria e lanchonete Mappa dos Sabores,ChIJ9w50XZK_oQARWNJ0-08Ma-s,3.9,81,Lanchonete,"R. dos Inconfidentes, 355 - Centro, Tiradentes - MG, 36325-000, Brasil",+55 32 99969-0227,,Fechado ⋅ Abre às 07:00,"Tiradentes, MG",confeitarias,2025-07-29T06:04:35.150152,COMPLETA,-21.1110147,-44.1703902
14,Levi Torteria,ChIJi3ktMOa5oQARFa9WNQXnPlw,5,12,Loja de tortas,"rua alvarenga peixoto - cuiabá, Tiradentes - MG, 36325-000, Brasil",+55 32 99860-4335,https://www.instagram.com/levi_torteria/,Fechado ⋅ Abre às 09:00,"Tiradentes, MG",confeitarias,2025-07-29T06:04:35.150152,COMPLETA,-21.1101985,-44.173528
3,Cafeteria Tiradentes - Café Vertentes,ChIJk5InJFS5oQARpwuWiNA-0Dk,4.8,119,Cafeteria,"R. Min. Gabriel Passos, 262 - Centro, Tiradentes - MG, 36325-000, Brasil",+55 32 99861-6614,,Fechado ⋅ Abre às 09:30,"Tiradentes, MG",cafeterias,2025-07-29T06:04:36.879981,COMPLETA,-21.108694999999997,-44.176117
5,Quitanda mineira,ChIJR_x2k-i_oQARmQl9k2InnF4,4.8,199,Cafeteria,"R. Francisco Pereira Morais, 65 - centro, Tiradentes - MG, 36325-000, Brasil",+55 32 98481-1804,,Fechado ⋅ Abre qua. às 08:00,"Tiradentes, MG",cafeterias,2025-07-29T06:04:36.879981,COMPLETA,-21.1109287,-44.1699351
6,Casa do Sino,ChIJc_0waay4oQARfn9TCvrr3Vs,4.6,231,Café,"R. Custódio Gomes, 39 - Tiradentes, MG, 36325-000, Brasil",+55 32 98820-0294,,Fechado ⋅ Abre às 10:00,"Tiradentes, MG",cafeterias,2025-07-29T06:04:36.879981,COMPLETA,-21.1092676,-44.175060099999996
7,Porão Tiradentes,ChIJZ8OQil25oQARO9W_9utqpJE,4.9,16,Café,"R. da Camara, 8b - Tiradentes, MG, 36325-000, Brasil",+55 32 98842-3920,,Fechado ⋅ Abre qua. às 09:00,"Tiradentes, MG",cafeterias,2025-07-29T06:04:36.879981,COMPLETA,-21.1098881,-44.177974999999996
8,Cafe Do Museu,ChIJ_Vz_6dO5oQARxH-qjklaxe0,5,11,Café,"R. da Cadeia - Tiradentes, MG, 36325-000, Brasil",+55 32 98493-1960,,Fechado ⋅ Abre qua. às 10:00,"Tiradentes, MG",cafeterias,2025-07-29T06:04:36.879981,COMPLETA,-21.109374799999998,-44.1764813
10,Tiradentes,ChIJw-1PLAC5oQAR4Act7f3bTYg,5,6,Cafeteria,"MG, 36325-000, Brasil",,,,"Tiradentes, MG",cafeterias,2025-07-29T06:04:36.879981,COMPLETA,-21.110255,-44.1735336
11,Vó Maria Artesanato,ChIJx8Tregy5oQARCX6nERkDhoE,4.6,11,Café,"R. Min. Gabriel Passos, 160 - Centro, Tiradentes - MG, 36325-000, Brasil",,,,"Tiradentes, MG",cafeterias,2025-07-29T06:04:36.879981,COMPLETA,-21.1094278,-44.175260699999995
12,Mazuma Mineira Bar & Coquetelaria,ChIJA9NNoje5oQARSaMeDDr6CgM,4.9,36,Café,"R. Direita, 159 - CENTRO HISTORICO, Tiradentes - MG, 36325-000, Brasil",+55 32 98441-5582,http://www.instagram.com.br/mazumamineirabar,Fechado ⋅ Abre qua. às 09:00,"Tiradentes, MG",cafeterias,2025-07-29T06:04:36.879981,COMPLETA,-21.109876099999997,-44.175947099999995
13,Café da Praça,ChIJ0W45A_G5oQARyt5U27OZNp8,5,3,Cafeteria,"R. Resende Costa, 30 - Tiradentes, MG, 36325-000, Brasil",,,,"Tiradentes, MG",cafeterias,2025-07-29T06:04:36.879981,COMPLETA,-21.1106359,-44.174005199999996
15,Pousada Cama e Café Tiradentes MG,ChIJhX8571K_oQARTTy0gp7GuhQ,4.9,142,Cama e café,"R. Manoel Morais Batista Júnior, 26 - Parque das Abelhas, Tiradentes - MG, 36325-000, Brasil",+55 32 98876-1079,http://camacafetiradentes.com.br/,,"Tiradentes, MG",cafeterias,2025-07-29T06:04:36.879981,COMPLETA,-21.1088679,-44.1704951
17,"Jardins de Maria - Flora, Café e Decor",ChIJv_-vfOG5oQARXIud6iGireE,4.9,17,Cafeteria,"R. José Vicente de Almeida, 91 - São Pedro (Colônia do Marçal), Tiradentes - MG, 36325-000, Brasil",+55 32 99929-7332,,Fechado ⋅ Abre sáb. às 10:00,"Tiradentes, MG",cafeterias,2025-07-29T06:04:36.879981,COMPLETA,-21.0885431,-44.2015573
18,Empório Vó Mercês,ChIJiWaLYwC5oQARw16R3fTtRvg,5,4,Cafeteria,"R. Custódio Gomes, 13 - Tiradentes, MG, 36325-000, Brasil",,,Fechado ⋅ Abre qua. às 10:00,"Tiradentes, MG",cafeterias,2025-07-29T06:04:36.879981,COMPLETA,-21.109077499999998,-44.1751942
19,L.D Delícia de Sabor,ChIJ_5XdbADBoQARMwPqA35bT-k,5,1,Cafeteria,"R. Cap. Chaves Miranda - Tiradentes, MG, 36325-000, Brasil",,,,"Tiradentes, MG",cafeterias,2025-07-29T06:04:36.879981,COMPLETA,-21.114686499999998,-44.1672035
20,Chocolate do Rei,ChIJn-ZbTwC5oQARE1fu6bdp3n0,4.8,4,Cafeteria,"R. da Camara, 3 - Tiradentes, MG, 36325-000, Brasil",,,,"Tiradentes, MG",cafeterias,2025-07-29T06:04:36.879981,COMPLETA,-21.1099538,-44.178075299999996
1,HAMBURGUER DO ZÉ - TIRADENTES,ChIJdz1pXqu4oQARioco2hC8g1A,4.5,941,Hamburgueria,"Whatsapp & CEL: (82, Rua: São Francisco de Paula, 23 - Centro Histórico, Tiradentes - MG, 36325-000, Brasil",+55 32 98707-6601,https://www.facebook.com/hamburguerdoze.tiradentes.7,Fechado ⋅ Abre às 18:00,"Tiradentes, MG",hamburguerias,2025-07-29T06:04:41.982869,COMPLETA,-21.109791299999998,-44.1736024
2,Uai burguer,ChIJcxSyDmO_oQARwG0UpBx2DEc,4.8,166,Hamburgueria,"R. dos Inconfidentes, 320 - Tiradentes, MG, 36325-000, Brasil",+55 32 99931-5231,,Fechado ⋅ Abre às 19:00,"Tiradentes, MG",hamburguerias,2025-07-29T06:04:41.982869,COMPLETA,-21.1113184,-44.170857999999996
3,Rango's Burger,ChIJI_UjaNm_oQARvS6n6W1QZxs,4.9,153,Hamburgueria,"R. dos Inconfidentes, 249 - Centro, Tiradentes - MG, 36325-000, Brasil",+55 32 99951-4444,,Fechado ⋅ Abre qua. às 11:00,"Tiradentes, MG",hamburguerias,2025-07-29T06:04:41.982869,COMPLETA,-21.1111103,-44.1713465
4,America Pizza e Burgers,ChIJ362Lzfi5oQAR0Yus4ZePQps,4.6,376,Restaurante,"R. Frederico Ozanan, 327 - Centro, Tiradentes - MG, 36325-000, Brasil",+55 32 99979-9320,,Fechado ⋅ Abre às 19:00,"Tiradentes, MG",hamburguerias,2025-07-29T06:04:41.982869,COMPLETA,-21.108395299999998,-44.176865
5,Sabores da Inconfidencia,ChIJ935YYs25oQAR1tG_tyG4mPg,5,19,Hamburgueria,"R. dos Inconfidentes, 60 - Tiradentes, MG, 36325-000, Brasil",+55 32 99944-0192,,Fechado ⋅ Abre qua. às 18:00,"Tiradentes, MG",hamburguerias,2025-07-29T06:04:41.982869,COMPLETA,-21.1117706,-44.1735931
8,Restaurante Habanero,ChIJJ5KxpQ25oQARs9Cm-WTsYAw,4.7,274,Restaurante mexicano,"R. dos Inconfidentes, 109 - Centro Histórico, Tiradentes - MG, 36325-000, Brasil",+55 31 98874-2001,https://conectetiradentes.com.br/atrativos/restaurante-habanero-1672139511892x146304780588810240,Fechado ⋅ Abre qua. às 18:00,"Tiradentes, MG",hamburguerias,2025-07-29T06:04:41.982869,COMPLETA,-21.1111106,-44.1726916
9,Planeta lanches,ChIJM5brPBm_oQAR9Tu94SQcaII,4.6,102,Lanchonete,"Ao lado da Pousada da Sirlei, Praça Berço da Liberdade, 08 - Centro, Tiradentes - MG, 36325-000, Brasil",+55 32 99925-3760,,Fechado ⋅ Abre às 18:00,"Tiradentes, MG",hamburguerias,2025-07-29T06:04:41.982869,COMPLETA,-21.1122691,-44.169053399999996
10,Montanha's Restaurante,ChIJf_giwdu5oQAR-vCDRmjAo2U,4.8,441,Restaurante,"R. Min. Gabriel Passos, 300 - Centro, Tiradentes - MG, 36325-000, Brasil",+55 32 98837-7062,,Fechado ⋅ Abre às 11:00,"Tiradentes, MG",hamburguerias,2025-07-29T06:04:41.982869,COMPLETA,-21.108428,-44.176494999999996
11,Quintal Tiradentes,ChIJ0bUIVvq5oQARUJYzXL7_Qds,4.7,43,Restaurante brasileiro,"R. Padroeiro Santo Antônio, 253 - Cascalho, Tiradentes - MG, 36325-000, Brasil",+55 32 99869-8651,,Fechado ⋅ Abre às 12:00,"Tiradentes, MG",hamburguerias,2025-07-29T06:04:41.982869,COMPLETA,-21.1078875,-44.1701955
12,Boulevard Tiradentes,ChIJWzZBDpS_oQARHEQLSVX-L4A,4.9,679,Restaurante,"R. dos Inconfidentes, 217 - Tiradentes, MG, 36325-000, Brasil",+55 37 98831-0250,,Fechado ⋅ Abre às 11:00,"Tiradentes, MG",hamburguerias,2025-07-29T06:04:41.982869,COMPLETA,-21.1112015,-44.1718146
13,"Templário, Restaurante E Choperia",ChIJGechlKy4oQARac-n00zHCpI,4.3,1764,Restaurante,"R. Silvio Vasconcelos, 115-137 - Tiradentes, MG, 36325-000, Brasil",,https://templario.taplink.ws/,Fechado ⋅ Abre às 11:00,"Tiradentes, MG",hamburguerias,2025-07-29T06:04:41.982869,COMPLETA,-21.110071299999998,-44.1734893
14,SpaceBurguer,ChIJe3tAJzy_oQARKcDLY_JLXyU,3.1,8,Hamburgueria,"R. Padroeiro Santo Antônio, 158 - Tiradentes, MG, 36325-000, Brasil",+55 32 99953-7352,https://www.instagram.com/spaceburguer_23?igsh=cDJlMmM5c2R0dTNo&utm_source=qr,Fechado ⋅ Abre às 19:00,"Tiradentes, MG",hamburguerias,2025-07-29T06:04:41.982869,COMPLETA,-21.106434999999998,-44.171127399999996
15,Pacco & Bacco,ChIJw2FpBqy4oQARWfnxzYpJqSs,4.6,1041,Restaurante,"R. Direita, 166 - Tiradentes, MG, 36325-000, Brasil",+55 32 3355-1136,http://paccobacco.com.br/,Fechado ⋅ Abre às 19:00,"Tiradentes, MG",hamburguerias,2025-07-29T06:04:41.982869,COMPLETA,-21.109770899999997,-44.176272
16,Nossa Osteria Cucina Ítalo Brasileira Tiradentes,ChIJ_XhJLJm5oQAR4zMFwB4uivs,4.8,23,Restaurante italiano,"R. Francisco Cândido Barbosa, 156 - Tiradentes, MG, 36325-000, Brasil",+55 32 99810-8407,https://www.nossaosteria.com.br/,Fechado ⋅ Abre às 12:00,"Tiradentes, MG",hamburguerias,2025-07-29T06:04:41.982869,COMPLETA,-21.1056728,-44.175176099999995
18,Virada’s do Largo- Restaurante da Beth,ChIJp8HzibK4oQARcPrAk2bK_s4,4.5,1163,Restaurante Mineiro,"R. do Moinho, 11 - Prainha, Tiradentes - MG, 36325-000, Brasil",+55 32 99129-8181,http://www.viradasdolargo.com.br/,Fechado ⋅ Abre às 12:00,"Tiradentes, MG",hamburguerias,2025-07-29T06:04:41.982869,COMPLETA,-21.105554899999998,-44.1746127
19,Mandalun Restaurante E Lanchonete,ChIJjzOJiKy4oQARoUz9uBOj22Y,3.7,425,Restaurante,"R. Min. Gabriel Passos, 10 - Tiradentes, MG, 36325-000, Brasil",+55 32 3355-2176,,Fechado ⋅ Abre às 10:00,"Tiradentes, MG",hamburguerias,2025-07-29T06:04:41.982869,COMPLETA,-21.1100086,-44.174320099999996
20,Uaiburguer,ChIJVbQZfgC_oQAR0LqJIbrF7Gk,,0,Hamburgueria,"R. Alvarenga Peixoto, 683 - Tiradentes, MG, 36325-000, Brasil",,,,"Tiradentes, MG",hamburguerias,2025-07-29T06:04:41.982869,COMPLETA,-21.107704299999998,-44.1594439
4,Plano B Tiradentes,ChIJXYXpGay4oQARiBm3yeEVSIE,4.1,604,Bar,"R. Min. Gabriel Passos, 79 - Tiradentes, MG, 36325-000, Brasil",+55 32 99806-2564,https://planobtiradentes.com.br/,Fechado ⋅ Abre qua. às 12:00,"Tiradentes, MG",pubs,2025-07-29T06:04:43.723254,COMPLETA,-21.1099013,-44.1749854
7,Conto de Réis o Bar,ChIJFwxvkqy4oQARhJfMJX4w17A,4.2,270,Bar,"Largo Forras, 62 - Tiradentes, MG, 36325-000, Brasil",,http://www.contodereis.com.br/,Fechado ⋅ Abre às 18:00,"Tiradentes, MG",pubs,2025-07-29T06:04:43.723254,COMPLETA,-21.110164299999997,-44.1735648
9,mineiríssimo bar,ChIJsz-T9eu5oQART_d5VKfkMcU,5,60,Bar,"R. Min. Gabriel Passos, 280a - Centro, Tiradentes - MG, 36325-000, Brasil",+55 31 97241-1457,,Fechado ⋅ Abre qua. às 17:00,"Tiradentes, MG",pubs,2025-07-29T06:04:43.723254,COMPLETA,-21.108659,-44.1763447
10,Taberna Tiradentes,ChIJAd0-JC65oQAR9Ba_R_nmlh0,3.6,11,Bar,"R. Resende Costa, 66 - Centro, Tiradentes - MG, 36325-000, Brasil",+55 32 99195-6682,,Fechado ⋅ Abre qui. às 17:00,"Tiradentes, MG",pubs,2025-07-29T06:04:43.723254,COMPLETA,-21.1106291,-44.1736402
11,Botecão Raiz,ChIJaauMEy6_oQAR6khyfopdvho,4.8,13,Bar,"R. Alvarenga Peixoto, 1055a - Tiradentes, MG, 36325-000, Brasil",,,,"Tiradentes, MG",pubs,2025-07-29T06:04:43.723254,COMPLETA,-21.1059542,-44.155936
14,Empório Vó Alice,ChIJk_MqVmW5oQARS9IbNKY_v3c,4.6,43,Gastropub,"R. da Camara, 37 - Centro, Tiradentes - MG, 36325-000, Brasil",+55 32 99927-3048,,Fechado ⋅ Abre às 08:30,"Tiradentes, MG",pubs,2025-07-29T06:04:43.723254,COMPLETA,-21.1097161,-44.1779812
16,Restaurante Celso,ChIJN4JjkKy4oQARF7iAIIa_D28,4.5,1275,Restaurante Mineiro,"Largo das Forras, 80 - Tiradentes, MG, 36325-000, Brasil",+55 32 99843-8722,https://conectetiradentes.com.br/atrativos/restaurantre-celso-1697542882293x108748069508481020,Fechado ⋅ Abre qua. às 12:00,"Tiradentes, MG",pubs,2025-07-29T06:04:43.723254,COMPLETA,-21.1101627,-44.1737465
17,Taberna d'Omar - Cozinha Artesanal (Tiradentes),ChIJY2nmwkm5oQARPW8n35ZXzWE,4.6,104,Restaurante,"R. Direita, 187 - Centro, Tiradentes - MG, 36325-000, Brasil",+55 32 99117-3382,,Fechado ⋅ Abre qui. às 09:00,"Tiradentes, MG",pubs,2025-07-29T06:04:43.723254,COMPLETA,-21.109959,-44.175723
19,Rampa das Flores,ChIJ-TrUiKu4oQARNv5xXHJJRhc,4.4,25,Shopping center,"R. Direita, 189 - Tiradentes, MG, 36325-000, Brasil",,,Aberto 24 horas,"Tiradentes, MG",pubs,2025-07-29T06:04:43.723254,COMPLETA,-21.1104804,-44.1751052
20,Tandooh's Pub,ChIJeVptsuW_oQARcBiz8SGRmtA,,0,Pub irlandês,"R. Joaquim Ramalho, 248 - Cuiabá, Tiradentes - MG, 36325-000, Brasil",+55 32 99983-0069,,,"Tiradentes, MG",pubs,2025-07-29T06:04:43.723254,COMPLETA,-21.111225899999997,-44.1675251
1,Sorveteria Aurus Tiradentes MG,ChIJa47QrmG5oQARiBK_6I5-AY0,4.6,89,Sorveteria,"Largo das Forras, 62b - centro, Tiradentes - MG, 36325-000, Brasil",+55 32 99972-1340,https://instagram.com/sorveteriaaurustiradentes?igshid=YmMyMTA2M2Y=,Fechado ⋅ Abre qua. às 11:00,"Tiradentes, MG",sorveterias,2025-07-29T06:04:45.727646,COMPLETA,-21.1102043,-44.1735397
3,Gelatos da Vila,ChIJGUhpHym5oQARa0fMjNh3XJU,4.4,156,Sorveteria,"R. Min. Gabriel Passos, 155 - Centro, Tiradentes - MG, 36325-000, Brasil",+55 32 99810-3004,https://www.angatutiradentes.com/gelatos-da-vila,Fechado ⋅ Abre às 11:00,"Tiradentes, MG",sorveterias,2025-07-29T06:04:45.727646,COMPLETA,-21.109007599999998,-44.176004299999995
4,DeliGeli,ChIJRyadylG5oQARI-79o-Wp6E8,4.5,20,Sorveteria,"R. Min. Gabriel Passos, 85 - Centro, Tiradentes - MG, 36325-000, Brasil",+55 32 3554-1149,https://deligeli.com.br/,Fechado ⋅ Abre às 12:00,"Tiradentes, MG",sorveterias,2025-07-29T06:04:45.727646,COMPLETA,-21.1098192,-44.175054599999996
5,Noi Tre Gelateria,ChIJ3-36KwC5oQAR_0zxvX8Dy3w,4.3,25,Sorveteria,"Largo das Forras, 80 - Tiradentes, MG, 36325-000, Brasil",,,,"Tiradentes, MG",sorveterias,2025-07-29T06:04:45.727646,COMPLETA,-21.110360699999998,-44.1739095
6,Noitre Gelateria,ChIJJdAo1ju_oQAR8jWSUW8yFUs,4.6,11,Sorveteria,"Largo das forras, 88 - Tiradentes, MG, 36325-000, Brasil",,,Fechado ⋅ Abre às 11:00,"Tiradentes, MG",sorveterias,2025-07-29T06:04:45.727646,COMPLETA,-21.109700999999998,-44.1624865
7,Quitandinha Tiradentes,ChIJQ9Jc9ju_oQARhXB5hpwHd4o,5,1,Sorveteria,"R. Joaquim Ramalho, 205 - Centro, Tiradentes - MG, 36325-000, Brasil",,,,"Tiradentes, MG",sorveterias,2025-07-29T06:04:45.727646,COMPLETA,-21.1111179,-44.16777
8,Açaí da Sandra,ChIJqVR1T06_oQARUx_BqkA_rnw,4.6,128,Sorveteria,"R. Alberto Paoluci, 140 - Centro, Tiradentes - MG, 36325-000, Brasil",+55 32 99100-4777,https://instagram.com/oacaidasandra?utm_medium=copy_link,Fechado ⋅ Abre às 13:00,"Tiradentes, MG",sorveterias,2025-07-29T06:04:45.728656,COMPLETA,-21.1097146,-44.1698946
9,Frutos De Goiás,ChIJNzSJLl25oQARDZFAcmpkw7w,4.4,11,Sorveteria,"R. dos Inconfidentes, 60 - Centro, Tiradentes - MG, 36325-000, Brasil",+55 32 98851-7270,https://instagram.com/frutosdegoiastiradentesmg?igshid=YmMyMTA2M2Y=,Fechado ⋅ Abre qua. às 10:00,"Tiradentes, MG",sorveterias,2025-07-29T06:04:45.728656,COMPLETA,-21.1117718,-44.1735861
12,Cantinho Doce Sorveteria,ChIJo6OAFES_oQARw1eYoibn1Ug,4,2,Doceria,"R. Joaquim Ramalho, 122 - Tiradentes, MG, 36325-000, Brasil",,,,"Tiradentes, MG",sorveterias,2025-07-29T06:04:45.728656,COMPLETA,-21.1114608,-44.1684108
13,Joca Churros e Sorvetes,ChIJWTnBOeO5oQARO6kZ0fCHinw,5,2,Sorveteria,"R. dos Inconfidentes, 98 A - Tiradentes, MG, 36325-000, Brasil",+55 37 98842-3169,,Fechado ⋅ Abre às 11:00,"Tiradentes, MG",sorveterias,2025-07-29T06:04:45.728656,COMPLETA,-21.1112155,-44.1729911
15,Sorveteria de Minas,ChIJA4mx0ha5oQARepYgdfsev_g,,0,Sorveteria,"R. Min. Gabriel Passos, 80 - Centro, Tiradentes - MG, 36325-000, Brasil",+55 32 99986-8681,,Fechado ⋅ Abre às 09:30,"Tiradentes, MG",sorveterias,2025-07-29T06:04:45.728656,COMPLETA,-21.1097011,-44.1749194
1,Queijos Tiradentes,ChIJu_0X8M_HoQARoW-MoviCMqA,5,273,Fabricante de queijo,"R. Antônio Gabriel Rosa - Tiradentes, MG, 36325-000, Brasil",+55 32 99915-7089,https://instagram.com/queijostiradentes?igshid=YmMyMTA2M2Y=,Fechado ⋅ Abre às 07:30,"Tiradentes, MG",queijarias,2025-07-29T06:04:48.065683,COMPLETA,-21.118211499999997,-44.1809595
2,Ouro Canastra Q'JARIA,ChIJ1fLnBay4oQARKjEi5gSFjNA,4.6,138,Loja de queijos,"R. Direita, 205 A - Tiradentes, MG, 36325-000, Brasil",+55 32 98871-1389,https://www.instagram.com/ouro_canastra/?hl=pt-br,Fechado ⋅ Abre às 10:00,"Tiradentes, MG",queijarias,2025-07-29T06:04:48.065683,COMPLETA,-21.1101672,-44.1756045
3,Casa do Queijo,ChIJpwLNzFy5oQARUOsJkY98nVc,4.7,173,Loja de queijos,"WhatsApp&(32)9866, 9795_R. Henrique Diniz, 146 - Centro, Tiradentes - MG, 36325-000, Brasil",,,Fechado ⋅ Abre às 09:00,"Tiradentes, MG",queijarias,2025-07-29T06:04:48.065683,COMPLETA,-21.1109108,-44.1721992
4,Queijaria Tiradentes,ChIJSd5lknG5oQARh2HIoAV6lgA,5,2,Loja atacadista de alimentos,"R. Min. Gabriel Passos, 212 - Centro, Tiradentes - MG, 36325-000, Brasil",+55 32 99807-5646,http://www.queijariatiradentes.com.br/,,"Tiradentes, MG",queijarias,2025-07-29T06:04:48.065683,COMPLETA,-21.108899599999997,-44.175789099999996
5,Queijaria Da Vovó,ChIJC_NHkdq5oQARUmFtHqpjWGE,4.8,9,Loja de queijos,"R. Direita, 10 - Centro, Tiradentes - MG, 36325-000, Brasil",+55 35 99135-1422,https://www.queijariadavovo.com/,Fechado ⋅ Abre às 09:00,"Tiradentes, MG",queijarias,2025-07-29T06:04:48.065683,COMPLETA,-21.1091944,-44.1772153
6,Sítio da Conquista,ChIJNWWymYPHoQAR99m0VONiHeg,4.8,12,Fabricante de queijo,"Unnamed Road, Tiradentes - MG, 36325-000, Brasil",+55 31 98979-0490,,Fechado ⋅ Abre sex. às 13:00,"Tiradentes, MG",queijarias,2025-07-29T06:04:48.065683,COMPLETA,-21.1255783,-44.1844105
7,Empório Sabores do Sítio - Queijo da Lúcia,ChIJ_ZPNj8fHoQARMEP1l0U2IGo,4.7,22,Loja de queijos,"Av. Min. Gabriel Passos, n° 4083 - Candonga, Tiradentes - MG, 36325-000, Brasil",+55 32 98443-1660,http://saboresdositio.com/,Fechado ⋅ Abre às 10:00,"Tiradentes, MG",queijarias,2025-07-29T06:04:48.065683,COMPLETA,-21.119321799999998,-44.1987181
9,Queijaria nossa senhora do Pilar,ChIJ66dWQwDBoQARmIM5D3F1_kY,,0,Fabricante de queijo,"Rua Caixa D'Agua - Tiradentes, MG, 36325-000, Brasil",,,,"Tiradentes, MG",queijarias,2025-07-29T06:04:48.065683,COMPLETA,-21.144800099999998,-44.1103143
2,Empório Santo Antônio Restaurante,ChIJxc3j-k2_oQARQcLgBCCK0X4,4.8,611,Restaurante,"R. Belica, 133 - Parque das Abelhas, Tiradentes - MG, 36325-000, Brasil",+55 32 3355-2433,https://www.instagram.com/emporiosantoantonio/,Fechado ⋅ Abre qui. às 12:00,"Tiradentes, MG",emporios,2025-07-29T06:04:48.907492,COMPLETA,-21.1076165,-44.1677993
4,Emporio Tiradentes,ChIJDXUt_lK_oQARSTCJri2SFQU,5,3,Loja de bebidas alcoólicas,"R. Alberto Paoluci, 144 - Centro, Tiradentes - MG, 36325-000, Brasil",+55 32 3355-1774,https://www.facebook.com/Emporio-Tiradentes-234900447035522/,,"Tiradentes, MG",emporios,2025-07-29T06:04:48.907492,COMPLETA,-21.109752999999998,-44.169828599999995
5,Empório Heliodora,ChIJpRyL3Hi_oQARx_HIAICKPHk,4.6,12,Artesanato,"Largo das Forras, nº 38 - Centro Histórico, Tiradentes - MG, 36325-000, Brasil",+55 32 99912-1275,,Fechado ⋅ Abre às 09:00,"Tiradentes, MG",emporios,2025-07-29T06:04:48.907492,COMPLETA,-21.1106314,-44.1740202
6,RESTAURANTE-CAFETERIA-LOJA EMPÓRIO MIRANTE,ChIJV68pxim_oQARM89O30iON5s,4.8,58,Restaurante,"R. Alvarenga Peixoto, 1637 - Capote, Tiradentes - MG, 36325-000, Brasil",+55 32 98404-2450,,Fechado ⋅ Abre qua. às 10:00,"Tiradentes, MG",emporios,2025-07-29T06:04:48.907492,COMPLETA,-21.103477599999998,-44.1533674
7,Empório Santa Inês de Tiradentes,ChIJBf84Oqy4oQARjJZBQyl6i5c,4.3,3,Loja de Roupa,"R. Min. Gabriel Passos, 212 - Centro, Tiradentes - MG, 36325-000, Brasil",+55 32 3355-2792,,Fechado ⋅ Abre às 09:00,"Tiradentes, MG",emporios,2025-07-29T06:04:48.907492,COMPLETA,-21.1089,-44.1757985
12,Águas de Tiradentes - Empório de Aromas,ChIJzfH1aAC_oQARMW8EvQiZcI8,5,20,Loja de cosmético,"R. dos Inconfidentes, 320 - Centro, Tiradentes - MG, 36325-000, Brasil",+55 32 99906-8050,,Fechado ⋅ Abre qui. às 11:00,"Tiradentes, MG",emporios,2025-07-29T06:04:48.907492,COMPLETA,-21.1113291,-44.1706906
13,Restaurante e Empório Casa de Vó,ChIJ1aBgaTG_oQARU9m7cOn2mmk,4.4,27,Restaurante,"R. dos Inconfidentes, 320 - Tiradentes, MG, 36325-000, Brasil",+55 32 98521-6666,https://patrickferreirapkz.wixsite.com/restaurantecasadevo,Fechado ⋅ Abre às 11:00,"Tiradentes, MG",emporios,2025-07-29T06:04:48.907492,COMPLETA,-21.1114093,-44.170673199999996
14,Empório Patrícia Barbosa,ChIJvdgBFEC_oQARBWTU8f9fAA4,4.8,8,Loja de artigos domésticos,"R. Alvarenga Peixoto, 1580 - Tiradentes, MG, 36325-000, Brasil",+55 32 3355-1158,https://www.emporiopatriciabarbosa.com.br/,Fechado ⋅ Abre às 09:00,"Tiradentes, MG",emporios,2025-07-29T06:04:48.907492,COMPLETA,-21.1038304,-44.1537832
17,Vó Maria empório,ChIJX0aXbQC5oQARlsI62XNid_c,,0,Armazém,"R. Resende Costa, 54b - Centro, Tiradentes - MG, 36325-000, Brasil",+55 32 99999-0891,,Fechado ⋅ Abre às 09:00,"Tiradentes, MG",emporios,2025-07-29T06:04:48.907492,COMPLETA,-21.1107364,-44.1744519
18,Mercado Tunico,ChIJMyyArKy4oQARvbl1VVH5DD0,4.6,935,Empório gourmet,"R. Henrique Diniz, 155 - Centro, Tiradentes - MG, 36325-000, Brasil",+55 32 3355-1132,https://mercadotunico.com.br/,Fechado ⋅ Abre às 08:00,"Tiradentes, MG",emporios,2025-07-29T06:04:48.907492,COMPLETA,-21.1110775,-44.172097799999996
19,PORQUIN NA LATA,ChIJbbzqchu_oQARn_tmNAcxf6Y,4.9,20,Empório gourmet,"R. dos Inconfidentes, 421 - ljB - Centro, Tiradentes - MG, 36325-000, Brasil",+55 32 99816-3296,https://www.instagram.com/porquinnalata/,Fechado ⋅ Abre às 09:00,"Tiradentes, MG",emporios,2025-07-29T06:04:48.907492,COMPLETA,-21.111032299999998,-44.1697991
20,Empório Águas Santas,ChIJbdma7L65oQAReyC2Zrkmr2Y,3.6,5,Bar,"Av. Pres. Castelo Branco, 2012 - São Pedro (Colônia do Marçal), Tiradentes - MG, 36325-000, Brasil",+55 32 99934-1384,,Fechado ⋅ Abre às 16:00,"Tiradentes, MG",emporios,2025-07-29T06:04:48.907492,COMPLETA,-21.0784384,-44.2062198
2,Mercado Municipal Cidade Tiradentes,ChIJN9lH_Z9vzpQR6ybsbUdAoaI,4,505,Mercado de produtos agrícolas,"antigo Sacolão, Av. dos Metalúrgicos, 2229 - Cidade Tiradentes, São Paulo - SP, 08471-000, Brasil",+55 11 3227-3474,,Fechado ⋅ Abre às 08:00,"Tiradentes, MG",mercados_municipais,2025-07-29T06:04:51.102621,COMPLETA,-23.5992513,-46.401604
